{
  "version": 0.6,
  "generator": "Overpass API 0.7.61.5 4133829e",
  "osm3s": {
    "timestamp_osm_base": "2023-11-17T11:08:51Z",
    "timestamp_areas_base": "2023-11-17T10:18:30Z",
    "copyright": "The data included in this document is from www.openstreetmap.org. The data is made available under ODbL."
  },
  "elements": [
    {
      "type": "node",
      "id": 30092040,
      "lat": -1.2982549,
      "lon": 36.7630381,
      "tags": {
        "addr:housenumber": "Ngong Rd, Nairobi",
        "name": "Carrefour",
        "operator": "Carrefour",
        "shop": "supermarket"
      }
    },
    {
      "type": "node",
      "id": 30324343,
      "lat": -1.2614308,
      "lon": 36.8018676,
      "tags": {
        "addr:city": "Nairobi",
        "addr:housenumber": "Sarit Centre,",
        "addr:street": "Karuna road",
        "brand": "Carrefour",
        "brand:wikidata": "Q217599",
        "brand:wikipedia": "fr:Carrefour (enseigne)",
        "name": "Carrefour",
        "opening_hours": "08:00-21:00",
        "operator": "Groupe Carrefour",
        "operator:wikidata": "Q3117359",
        "operator:wikipedia": "fr:Groupe Carrefour",
        "payment:cash": "yes",
        "payment:coins": "yes",
        "payment:credit_cards": "yes",
        "payment:mastercard": "yes",
        "payment:notes": "yes",
        "payment:visa": "yes",
        "shop": "supermarket"
      }
    },
    {
      "type": "node",
      "id": 30695833,
      "lat": -1.3164518,
      "lon": 36.8348783,
      "tags": {
        "addr:city": "Nairobi",
        "addr:street": "Mombasa Road",
        "name": "Naivas Supermarket",
        "shop": "supermarket"
      }
    },
    {
      "type": "node",
      "id": 272714627,
      "lat": -1.2300079,
      "lon": 36.804509,
      "tags": {
        "addr:housenumber": "City Walk - Village Market",
        "name": "City Walk - Village Market",
        "shop": "shoes",
        "sport": "bowling"
      }
    },
    {
      "type": "node",
      "id": 473447868,
      "lat": -1.3655608,
      "lon": 36.7427461,
      "tags": {
        "addr:city": "Nairobi",
        "addr:housenumber": "2",
        "addr:postcode": "00509",
        "addr:street": "Tembo Road",
        "brand": "KTM;Husaberg",
        "description": "KTM, Husaberg, Airoh helmets, Gaerne Boots, Pirelli tyres",
        "email": "ktmsmkenya@gmail.com",
        "name": "KTM Kenya",
        "operator": "Sport Motorcycles ltd",
        "phone": "+254 716 886355",
        "shop": "motorcycle",
        "website": "https://www.facebook.com/KTM-Kenya-152872861523365"
      }
    },
    {
      "type": "node",
      "id": 489246761,
      "lat": -1.3295149,
      "lon": 36.8891623,
      "tags": {
        "addr:city": "Nairobi",
        "addr:street": "Airport North Road",
        "name": "Nakumatt Embakasi Supermarket",
        "shop": "supermarket"
      }
    },
    {
      "type": "node",
      "id": 494772713,
      "lat": -1.259642,
      "lon": 36.8185529,
      "tags": {
        "name": "Nakumatt Highridge",
        "shop": "supermarket"
      }
    },
    {
      "type": "node",
      "id": 494772725,
      "lat": -1.2593846,
      "lon": 36.8178663,
      "tags": {
        "addr:city": "Nairobi",
        "addr:street": "Pramukh Swami Avenue",
        "name": "Chandarana Food Plus Supermarket Ltd.",
        "shop": "supermarket"
      }
    },
    {
      "type": "node",
      "id": 502876719,
      "lat": -1.22415,
      "lon": 36.8014567,
      "tags": {
        "addr:city": "Nairobi",
        "addr:street": "Rosslyn Green Crescent",
        "name": "River Garden Centre",
        "shop": "garden_centre"
      }
    },
    {
      "type": "node",
      "id": 521103444,
      "lat": -1.3068216,
      "lon": 36.8020059,
      "tags": {
        "name": "Fairlane",
        "shop": "supermarket"
      }
    },
    {
      "type": "node",
      "id": 586647848,
      "lat": -1.2632812,
      "lon": 36.8027833,
      "tags": {
        "addr:city": "Nairobi",
        "addr:housenumber": "Shell,",
        "addr:street": "Ring Road Parklands",
        "name": "Concorde",
        "shop": "car_repair"
      }
    },
    {
      "type": "node",
      "id": 597647390,
      "lat": -1.2499888,
      "lon": 36.8202489,
      "tags": {
        "addr:city": "Nairobi",
        "addr:street": "Limuru Road",
        "name": "Onn The Way Supermarket Muthaiga",
        "phone": "+254 787 689 689",
        "shop": "supermarket",
        "website": "https://onntheway.com/"
      }
    },
    {
      "type": "node",
      "id": 612006948,
      "lat": -1.3124555,
      "lon": 36.7769539,
      "tags": {
        "name": "Kiosks",
        "shop": "kiosk"
      }
    },
    {
      "type": "node",
      "id": 612006966,
      "lat": -1.3134616,
      "lon": 36.7774132,
      "tags": {
        "check_date": "2023-05-02",
        "name": "Baraka Shop",
        "opening_hours": "12:00+",
        "shop": "kiosk"
      }
    },
    {
      "type": "node",
      "id": 612007079,
      "lat": -1.3157535,
      "lon": 36.793805,
      "tags": {
        "check_date": "2023-05-02",
        "media:video_device_number": "8",
        "media:video_number": "6",
        "name": "Muungano Bar",
        "opening_hours": "12:00-23:00",
        "shop": "alcohol"
      }
    },
    {
      "type": "node",
      "id": 612007084,
      "lat": -1.3155364,
      "lon": 36.7935962,
      "tags": {
        "check_date": "2023-05-11",
        "name": "Crying Stone Bar",
        "shop": "alcohol"
      }
    },
    {
      "type": "node",
      "id": 612007089,
      "lat": -1.3103868,
      "lon": 36.7958157,
      "tags": {
        "name": "LainiI Saba Market",
        "note": "open air market",
        "opening_hours": "24/7",
        "shop": "supermarket"
      }
    },
    {
      "type": "node",
      "id": 612007099,
      "lat": -1.3167933,
      "lon": 36.7787784,
      "tags": {
        "name": "wild kiosk",
        "opening_hours": "Mo-Su 05:00-22:00",
        "shop": "kiosk"
      }
    },
    {
      "type": "node",
      "id": 612007105,
      "lat": -1.3159192,
      "lon": 36.7791021,
      "tags": {
        "name": "Peters shop",
        "opening_hours": "Mo-Su 05:00-22:00",
        "shop": "kiosk"
      }
    },
    {
      "type": "node",
      "id": 612007261,
      "lat": -1.3119144,
      "lon": 36.7885888,
      "tags": {
        "name": "Luzon Communication",
        "shop": "electronics"
      }
    },
    {
      "type": "node",
      "id": 612007273,
      "lat": -1.3122488,
      "lon": 36.7889795,
      "tags": {
        "check_date": "2023-05-11",
        "name": "Huduma Bora Communication",
        "shop": "electronics"
      }
    },
    {
      "type": "node",
      "id": 612007275,
      "lat": -1.3129346,
      "lon": 36.789604,
      "tags": {
        "check_date": "2023-04-19",
        "name": "Hiki Butchery",
        "shop": "butcher"
      }
    },
    {
      "type": "node",
      "id": 612007287,
      "lat": -1.315984,
      "lon": 36.7953322,
      "tags": {
        "check_date": "2023-04-22",
        "name": "J.Kengele Bar",
        "shop": "alcohol"
      }
    },
    {
      "type": "node",
      "id": 612007288,
      "lat": -1.3123638,
      "lon": 36.7986984,
      "tags": {
        "check_date": "2023-04-15",
        "name": "Laini Saba Book shop",
        "opening_hours": "Mo-Fr 08:30-20:00",
        "shop": "books"
      }
    },
    {
      "type": "node",
      "id": 612007463,
      "lat": -1.3116645,
      "lon": 36.7880881,
      "tags": {
        "name": "A.I.G Video Library",
        "shop": "video"
      }
    },
    {
      "type": "node",
      "id": 612007487,
      "lat": -1.311433,
      "lon": 36.7882005,
      "tags": {
        "check_date": "2023-05-11",
        "name": "Emirates Computer Services",
        "shop": "computer"
      }
    },
    {
      "type": "node",
      "id": 612007508,
      "lat": -1.3187707,
      "lon": 36.778355,
      "tags": {
        "check_date": "2023-05-02",
        "name": "Solanda Hotel",
        "shop": "kiosk"
      }
    },
    {
      "type": "node",
      "id": 612007516,
      "lat": -1.3184738,
      "lon": 36.7783287,
      "tags": {
        "check_date": "2023-05-02",
        "name": "Mama John's Kiosk",
        "shop": "kiosk"
      }
    },
    {
      "type": "node",
      "id": 612007526,
      "lat": -1.3186663,
      "lon": 36.7795699,
      "tags": {
        "name": "Enos",
        "shop": "kiosk"
      }
    },
    {
      "type": "node",
      "id": 612007572,
      "lat": -1.3135426,
      "lon": 36.7794654,
      "tags": {
        "name": "Laikias Pub",
        "opening_hours": "08:00-23:00",
        "shop": "alcohol"
      }
    },
    {
      "type": "node",
      "id": 612007580,
      "lat": -1.3132062,
      "lon": 36.7797788,
      "tags": {
        "name": "Ensano Bookshop",
        "opening_hours": "08:00-18:00",
        "shop": "books"
      }
    },
    {
      "type": "node",
      "id": 612007583,
      "lat": -1.3133094,
      "lon": 36.7796734,
      "tags": {
        "name": "Kabusa Dispensing Chemist",
        "opening_hours": "08:30-20:00",
        "shop": "chemist"
      }
    },
    {
      "type": "node",
      "id": 612007622,
      "lat": -1.3136603,
      "lon": 36.7758862,
      "tags": {
        "name": "mamu saloon",
        "shop": "hairdresser"
      }
    },
    {
      "type": "node",
      "id": 612007625,
      "lat": -1.3134901,
      "lon": 36.7759874,
      "tags": {
        "check_date": "2023-05-02",
        "name": "retail kiosks",
        "shop": "kiosk"
      }
    },
    {
      "type": "node",
      "id": 612007637,
      "lat": -1.3129532,
      "lon": 36.7947678,
      "tags": {
        "amenity": "cinema",
        "check_date": "2023-04-15",
        "name": "Casino Video Hall",
        "service": "video_sells",
        "shop": "video"
      }
    },
    {
      "type": "node",
      "id": 612007666,
      "lat": -1.3116313,
      "lon": 36.7938614,
      "tags": {
        "check_date": "2023-04-22",
        "name": "Getangura Shop",
        "shop": "convenience"
      }
    },
    {
      "type": "node",
      "id": 612007687,
      "lat": -1.3113539,
      "lon": 36.7954878,
      "tags": {
        "amenity": "cinema",
        "name": "Linker Video Show",
        "service": "video_sells",
        "shop": "video"
      }
    },
    {
      "type": "node",
      "id": 612007696,
      "lat": -1.312211,
      "lon": 36.7968507,
      "tags": {
        "amenity": "cinema",
        "check_date": "2023-05-02",
        "name": "Shimba Hills Video Hall",
        "shop": "video"
      }
    },
    {
      "type": "node",
      "id": 612007705,
      "lat": -1.3122214,
      "lon": 36.797677,
      "tags": {
        "name": "Kaloki Super Market",
        "opening_hours": "Mo-Fr 08:30-20:00",
        "shop": "supermarket"
      }
    },
    {
      "type": "node",
      "id": 612007707,
      "lat": -1.3121809,
      "lon": 36.7973566,
      "tags": {
        "amenity": "cinema",
        "name": "Base View Video Hall",
        "service": "video_sells",
        "shop": "video"
      }
    },
    {
      "type": "node",
      "id": 612007737,
      "lat": -1.3129198,
      "lon": 36.7985309,
      "tags": {
        "name": "Coner Point Stalls",
        "shop": "electronics"
      }
    },
    {
      "type": "node",
      "id": 612007761,
      "lat": -1.3135071,
      "lon": 36.7988344,
      "tags": {
        "check_date": "2023-03-27",
        "name": "Lucy Pub",
        "shop": "alcohol"
      }
    },
    {
      "type": "node",
      "id": 612007762,
      "lat": -1.3137264,
      "lon": 36.7989578,
      "tags": {
        "check_date": "2023-04-15",
        "name": "Wote Bar",
        "shop": "alcohol"
      }
    },
    {
      "type": "node",
      "id": 612007765,
      "lat": -1.3128194,
      "lon": 36.7984762,
      "tags": {
        "check_date": "2023-04-01",
        "name": "Igenia Phones Repair",
        "shop": "electronics"
      }
    },
    {
      "type": "node",
      "id": 612007769,
      "lat": -1.3126322,
      "lon": 36.7986368,
      "tags": {
        "name": "Twenty Four Hotel",
        "shop": "kiosk"
      }
    },
    {
      "type": "node",
      "id": 612007771,
      "lat": -1.3122784,
      "lon": 36.7987589,
      "tags": {
        "name": "Msafiri Bar",
        "shop": "alcohol"
      }
    },
    {
      "type": "node",
      "id": 612007774,
      "lat": -1.3115393,
      "lon": 36.7993081,
      "tags": {
        "check_date": "2023-05-02",
        "name": "Super Kiyozi Cuts",
        "shop": "hairdresser"
      }
    },
    {
      "type": "node",
      "id": 612007819,
      "lat": -1.3138997,
      "lon": 36.7877343,
      "tags": {
        "name": "Kilimanjaro",
        "shop": "kiosk"
      }
    },
    {
      "type": "node",
      "id": 612007829,
      "lat": -1.3133302,
      "lon": 36.7899135,
      "tags": {
        "check_date": "2023-04-19",
        "name": "Sura Studio",
        "operator": "TRASFORMER",
        "ref": "KPLC",
        "shop": "kiosk"
      }
    },
    {
      "type": "node",
      "id": 612007831,
      "lat": -1.3127394,
      "lon": 36.7849273,
      "tags": {
        "amenity": "cinema",
        "name": "Emirates Video Show",
        "service": "video_sells",
        "shop": "video"
      }
    },
    {
      "type": "node",
      "id": 612007845,
      "lat": -1.3119697,
      "lon": 36.7884097,
      "tags": {
        "shop": "kiosk"
      }
    },
    {
      "type": "node",
      "id": 612007855,
      "lat": -1.314936,
      "lon": 36.7752442,
      "tags": {
        "check_date": "2023-05-02",
        "name": "Mama Obasanjo Hotel",
        "notes": "Food Kiosk",
        "opening_hours": "Mo-Fr 08:30-20:00",
        "shop": "kiosk"
      }
    },
    {
      "type": "node",
      "id": 612007857,
      "lat": -1.3151354,
      "lon": 36.7751908,
      "tags": {
        "check_date": "2023-05-02",
        "name": "Soweto Corner Posho Mill",
        "notes": "Posho Mill",
        "opening_hours": "Mo-Fr 08:30-20:00",
        "shop": "convenience"
      }
    },
    {
      "type": "node",
      "id": 612007863,
      "lat": -1.3143528,
      "lon": 36.776108,
      "tags": {
        "check_date": "2023-05-02",
        "name": "Rafiki stores",
        "notes": "Store",
        "opening_hours": "06:30-21:00",
        "shop": "convenience"
      }
    },
    {
      "type": "node",
      "id": 612007868,
      "lat": -1.3140542,
      "lon": 36.7758847,
      "tags": {
        "check_date": "2023-05-02",
        "name": "Anyole saloon and kinyozi",
        "notes": "Baber and saloon shop",
        "opening_hours": "Mo-Fr 08:30-20:00",
        "shop": "hairdresser"
      }
    },
    {
      "type": "node",
      "id": 612007870,
      "lat": -1.314116,
      "lon": 36.7758556,
      "tags": {
        "check_date": "2023-05-02",
        "name": "Lady of Mercy Hair Saloon",
        "notes": "Saloon",
        "opening_hours": "Mo-Fr 08:30-20:00",
        "shop": "hairdresser"
      }
    },
    {
      "type": "node",
      "id": 612007883,
      "lat": -1.3152691,
      "lon": 36.7772731,
      "tags": {
        "name": "Chivas wines and spirits",
        "opening_hours": "Mo-Fr 08:30-20:00",
        "shop": "alcohol"
      }
    },
    {
      "type": "node",
      "id": 612007885,
      "lat": -1.3152951,
      "lon": 36.7771163,
      "tags": {
        "name": "Wingo Dressmaking shop",
        "notes": "kiosk",
        "shop": "kiosk"
      }
    },
    {
      "type": "node",
      "id": 612007916,
      "lat": -1.3163797,
      "lon": 36.78111,
      "tags": {
        "shop": "kiosk"
      }
    },
    {
      "type": "node",
      "id": 612007924,
      "lat": -1.3157079,
      "lon": 36.7859261,
      "tags": {
        "health_facility:type": "chemist_over_the_counter",
        "name": "community chemist",
        "opening_hours": "Mo-Fr 08:30-20:00",
        "shop": "chemist"
      }
    },
    {
      "type": "node",
      "id": 612007940,
      "lat": -1.3149995,
      "lon": 36.7852166,
      "tags": {
        "name": "Ayieko busaa club",
        "opening_hours": "24/7",
        "shop": "alcohol"
      }
    },
    {
      "type": "node",
      "id": 612007944,
      "lat": -1.3148612,
      "lon": 36.7855228,
      "tags": {
        "name": "Cham gi wadu hotel",
        "opening_hours": "06:00-22:00",
        "shop": "kiosk"
      }
    },
    {
      "type": "node",
      "id": 612008155,
      "lat": -1.315557,
      "lon": 36.7778195,
      "tags": {
        "name": "Bazz valley kerosene pump",
        "notes": "Kiosk",
        "opening_hours": "Mo-Fr 08:30-20:00",
        "shop": "kiosk"
      }
    },
    {
      "type": "node",
      "id": 612008371,
      "lat": -1.317106,
      "lon": 36.7780928,
      "tags": {
        "name": "Shop",
        "shop": "kiosk"
      }
    },
    {
      "type": "node",
      "id": 612008372,
      "lat": -1.3170353,
      "lon": 36.777951,
      "tags": {
        "name": "Ebeneza Kiosk",
        "shop": "kiosk"
      }
    },
    {
      "type": "node",
      "id": 612008373,
      "lat": -1.3178192,
      "lon": 36.7783314,
      "tags": {
        "check_date": "2023-05-12",
        "name": "Mama James Tumaini shop",
        "shop": "kiosk"
      }
    },
    {
      "type": "node",
      "id": 612008375,
      "lat": -1.3168101,
      "lon": 36.7776039,
      "tags": {
        "check_date": "2023-05-12",
        "name": "Rocky Valley Tailor Shop",
        "shop": "laundry"
      }
    },
    {
      "type": "node",
      "id": 612008382,
      "lat": -1.3152252,
      "lon": 36.7925402,
      "tags": {
        "check_date": "2023-04-15",
        "name": "Jeliza Shop",
        "shop": "convenience"
      }
    },
    {
      "type": "node",
      "id": 612008387,
      "lat": -1.3174212,
      "lon": 36.7943636,
      "tags": {
        "brand": "Shop & Go",
        "check_date": "2023-04-15",
        "name": "Munyote shop",
        "shop": "convenience"
      }
    },
    {
      "type": "node",
      "id": 612008391,
      "lat": -1.3159641,
      "lon": 36.7941386,
      "tags": {
        "check_date": "2023-03-27",
        "name": "Uchumi Ndogo Retail Shop",
        "shop": "convenience"
      }
    },
    {
      "type": "node",
      "id": 612008393,
      "lat": -1.3164417,
      "lon": 36.7947007,
      "tags": {
        "check_date": "2023-04-01",
        "name": "Jumingo Chemist",
        "shop": "chemist"
      }
    },
    {
      "type": "node",
      "id": 612008394,
      "lat": -1.3154741,
      "lon": 36.79329,
      "tags": {
        "check_date": "2023-05-08",
        "name": "Uchumi Ndogo Annex",
        "shop": "convenience"
      }
    },
    {
      "type": "node",
      "id": 612008395,
      "lat": -1.3156011,
      "lon": 36.7933467,
      "tags": {
        "name": "Japolo Tailoring Shop",
        "shop": "convenience"
      }
    },
    {
      "type": "node",
      "id": 612008398,
      "lat": -1.3146963,
      "lon": 36.7942733,
      "tags": {
        "check_date": "2023-03-27",
        "name": "Good Care Chemist",
        "shop": "chemist"
      }
    },
    {
      "type": "node",
      "id": 612008406,
      "lat": -1.3085101,
      "lon": 36.7818268,
      "tags": {
        "check_date": "2023-05-02",
        "name": "Makina computer services",
        "shop": "computer"
      }
    },
    {
      "type": "node",
      "id": 612008421,
      "lat": -1.3131692,
      "lon": 36.7793955,
      "tags": {
        "name": "Unga Base Pub",
        "opening_hours": "10:00-23:00",
        "shop": "alcohol"
      }
    },
    {
      "type": "node",
      "id": 612008430,
      "lat": -1.3127031,
      "lon": 36.7772876,
      "tags": {
        "check_date": "2023-05-02",
        "name": "Mwangaza/CJ Welding Site",
        "shop": "hardware"
      }
    },
    {
      "type": "node",
      "id": 612008432,
      "lat": -1.312449,
      "lon": 36.7776035,
      "tags": {
        "check_date": "2023-05-11",
        "name": "Maasai summit Saloon",
        "shop": "hairdresser"
      }
    },
    {
      "type": "node",
      "id": 612008433,
      "lat": -1.3124006,
      "lon": 36.7780596,
      "tags": {
        "check_date": "2023-05-11",
        "name": "Robin Express Dry-cleaner",
        "shop": "laundry"
      }
    },
    {
      "type": "node",
      "id": 612008435,
      "lat": -1.3123088,
      "lon": 36.7782496,
      "tags": {
        "name": "Electronic Shop",
        "shop": "electronics"
      }
    },
    {
      "type": "node",
      "id": 612008436,
      "lat": -1.3121812,
      "lon": 36.7787063,
      "tags": {
        "name": "By Gods Mercy Saloon",
        "shop": "hairdresser"
      }
    },
    {
      "type": "node",
      "id": 612008437,
      "lat": -1.3127139,
      "lon": 36.7793563,
      "tags": {
        "check_date": "2023-05-02",
        "name": "CJ Computer Services",
        "notes": "Printing/photocopy services",
        "shop": "computer"
      }
    },
    {
      "type": "node",
      "id": 612008439,
      "lat": -1.3120906,
      "lon": 36.7782991,
      "tags": {
        "check_date": "2023-05-11",
        "name": "Kitale butchery",
        "opening_hours": "Mo-Fr 08:30-20:00",
        "shop": "butcher"
      }
    },
    {
      "type": "node",
      "id": 612008441,
      "lat": -1.3121785,
      "lon": 36.7786384,
      "tags": {
        "name": "Ugenya Hardware",
        "opening_hours": "09:00-18:00",
        "shop": "hardware"
      }
    },
    {
      "type": "node",
      "id": 612008448,
      "lat": -1.316092,
      "lon": 36.7817934,
      "tags": {
        "name": "Focus 2000 Traders",
        "opening_hours": "06:00-22:00",
        "shop": "kiosk"
      }
    },
    {
      "type": "node",
      "id": 612008449,
      "lat": -1.315167,
      "lon": 36.7797164,
      "tags": {
        "name": "cereals",
        "opening_hours": "08:00-21:00",
        "organic": "only",
        "shop": "supermarket"
      }
    },
    {
      "type": "node",
      "id": 612008451,
      "lat": -1.3148064,
      "lon": 36.7802246,
      "tags": {
        "amenity": "cinema",
        "name": "Chandeka Video Show",
        "opening_hours": "08:00-23:00",
        "shop": "video"
      }
    },
    {
      "type": "node",
      "id": 612008460,
      "lat": -1.3160879,
      "lon": 36.7839662,
      "tags": {
        "name": "Mandevu's changaa",
        "opening_hours": "06:00-22:00",
        "shop": "alcohol"
      }
    },
    {
      "type": "node",
      "id": 612008464,
      "lat": -1.3148203,
      "lon": 36.7862381,
      "tags": {
        "name": "Tailoring/drycleaner",
        "opening_hours": "08:00-18:00",
        "shop": "dry_cleaning"
      }
    },
    {
      "type": "node",
      "id": 612008474,
      "lat": -1.3133378,
      "lon": 36.7966732,
      "tags": {
        "amenity": "cinema",
        "check_date": "2023-04-26",
        "name": "Chamwas Video Show",
        "shop": "video"
      }
    },
    {
      "type": "node",
      "id": 612008475,
      "lat": -1.3139161,
      "lon": 36.7975558,
      "tags": {
        "check_date": "2023-04-15",
        "name": "Kibwezi Engineering and show room",
        "opening_hours": "Mo-Fr 08:30-20:00",
        "shop": "doityourself"
      }
    },
    {
      "type": "node",
      "id": 612008480,
      "lat": -1.3114223,
      "lon": 36.7955445,
      "tags": {
        "amenity": "cinema",
        "name": "Manchester United Video Show",
        "service": "video_sells",
        "shop": "video"
      }
    },
    {
      "type": "node",
      "id": 612008483,
      "lat": -1.3122558,
      "lon": 36.7968679,
      "tags": {
        "amenity": "cinema",
        "name": "Step into Kijiji Video Show",
        "shop": "video"
      }
    },
    {
      "type": "node",
      "id": 612008486,
      "lat": -1.3121728,
      "lon": 36.7965682,
      "tags": {
        "check_date": "2023-03-27",
        "name": "Shimba Hills salon",
        "shop": "hairdresser"
      }
    },
    {
      "type": "node",
      "id": 612008493,
      "lat": -1.3105145,
      "lon": 36.7758615,
      "tags": {
        "name": "ayany kiosks",
        "note": "the shops includes or involves different activities like grocery, shops for household stuff etc",
        "opening_hours": "06:00-20:00",
        "shop": "kiosk"
      }
    },
    {
      "type": "node",
      "id": 612008494,
      "lat": -1.3102203,
      "lon": 36.7760353,
      "tags": {
        "check_date": "2023-05-02",
        "name": "Grocery",
        "organic": "only",
        "shop": "supermarket"
      }
    },
    {
      "type": "node",
      "id": 612008504,
      "lat": -1.3097818,
      "lon": 36.7752757,
      "tags": {
        "check_date": "2023-05-02",
        "internet_access": "public",
        "name": "Geonet cyber cafe",
        "opening_hours": "Mo-Fr 08:30-20:00",
        "shop": "computer"
      }
    },
    {
      "type": "node",
      "id": 612008505,
      "lat": -1.3095746,
      "lon": 36.7756946,
      "tags": {
        "name": "Urembo beauty palour",
        "opening_hours": "Mo-Su 08:00-21:00",
        "shop": "hairdresser"
      }
    },
    {
      "type": "node",
      "id": 612008522,
      "lat": -1.3120005,
      "lon": 36.7886143,
      "tags": {
        "check_date": "2023-04-01",
        "shop": "kiosk"
      }
    },
    {
      "type": "node",
      "id": 612008523,
      "lat": -1.3118085,
      "lon": 36.7888549,
      "tags": {
        "check_date": "2023-04-01",
        "name": "Food kiosk",
        "shop": "kiosk"
      }
    },
    {
      "type": "node",
      "id": 612008528,
      "lat": -1.3126519,
      "lon": 36.7892935,
      "tags": {
        "check_date": "2023-05-11",
        "name": "Computer Services",
        "shop": "computer"
      }
    },
    {
      "type": "node",
      "id": 612008531,
      "lat": -1.3125033,
      "lon": 36.7890987,
      "tags": {
        "check_date": "2023-04-05",
        "name": "hotel",
        "shop": "kiosk"
      }
    },
    {
      "type": "node",
      "id": 612008535,
      "lat": -1.3116804,
      "lon": 36.7897502,
      "tags": {
        "check_date": "2023-04-01",
        "shop": "kiosk"
      }
    },
    {
      "type": "node",
      "id": 612008536,
      "lat": -1.3113811,
      "lon": 36.7879306,
      "tags": {
        "name": "Salon",
        "shop": "hairdresser"
      }
    },
    {
      "type": "node",
      "id": 612008538,
      "lat": -1.3112975,
      "lon": 36.7879041,
      "tags": {
        "check_date": "2023-05-11",
        "name": "Salon",
        "shop": "hairdresser"
      }
    },
    {
      "type": "node",
      "id": 612008542,
      "lat": -1.3111772,
      "lon": 36.7890952,
      "tags": {
        "check_date": "2023-05-08",
        "name": "Shop",
        "shop": "kiosk"
      }
    },
    {
      "type": "node",
      "id": 612008545,
      "lat": -1.3109487,
      "lon": 36.789435,
      "tags": {
        "check_date": "2023-05-11",
        "name": "Shop",
        "shop": "kiosk"
      }
    },
    {
      "type": "node",
      "id": 612008546,
      "lat": -1.3110483,
      "lon": 36.789252,
      "tags": {
        "check_date": "2023-04-01",
        "name": "Salon",
        "shop": "hairdresser"
      }
    },
    {
      "type": "node",
      "id": 612008547,
      "lat": -1.311074,
      "lon": 36.7892221,
      "tags": {
        "check_date": "2023-04-01",
        "shop": "kiosk"
      }
    },
    {
      "type": "node",
      "id": 612008552,
      "lat": -1.3153671,
      "lon": 36.7973774,
      "tags": {
        "name": "Base poa bar",
        "shop": "alcohol"
      }
    },
    {
      "type": "node",
      "id": 612008560,
      "lat": -1.3142867,
      "lon": 36.7976513,
      "tags": {
        "check_date": "2023-04-26",
        "name": "Muguni Bar",
        "shop": "alcohol"
      }
    },
    {
      "type": "node",
      "id": 612008561,
      "lat": -1.3145274,
      "lon": 36.7976817,
      "tags": {
        "check_date": "2023-04-03",
        "name": "Dumani mini shop",
        "shop": "kiosk"
      }
    },
    {
      "type": "node",
      "id": 612008563,
      "lat": -1.3147399,
      "lon": 36.7975179,
      "tags": {
        "check_date": "2023-05-04",
        "name": "Wazee ukumbuka bar",
        "shop": "alcohol"
      }
    },
    {
      "type": "node",
      "id": 612008564,
      "lat": -1.3133764,
      "lon": 36.797097,
      "tags": {
        "check_date": "2023-04-26",
        "name": "Wendani Hotel",
        "shop": "kiosk"
      }
    },
    {
      "type": "node",
      "id": 612008566,
      "lat": -1.3141004,
      "lon": 36.7976163,
      "tags": {
        "check_date": "2023-04-26",
        "name": "Kitui line bar",
        "shop": "alcohol"
      }
    },
    {
      "type": "node",
      "id": 612008588,
      "lat": -1.3124008,
      "lon": 36.7986786,
      "tags": {
        "name": "Hotel De Vegas",
        "shop": "kiosk"
      }
    },
    {
      "type": "node",
      "id": 612008589,
      "lat": -1.3122825,
      "lon": 36.7988195,
      "tags": {
        "check_date": "2023-04-15",
        "name": "Home pride shop",
        "shop": "kiosk"
      }
    },
    {
      "type": "node",
      "id": 612008590,
      "lat": -1.3123773,
      "lon": 36.7987624,
      "tags": {
        "check_date": "2023-04-15",
        "name": "M pesa shop",
        "shop": "kiosk"
      }
    },
    {
      "type": "node",
      "id": 612008591,
      "lat": -1.3121327,
      "lon": 36.7993541,
      "tags": {
        "check_date": "2023-05-02",
        "name": "m Pesa S hop",
        "shop": "kiosk"
      }
    },
    {
      "type": "node",
      "id": 612008592,
      "lat": -1.3120044,
      "lon": 36.7993516,
      "tags": {
        "name": "Pambazuka",
        "shop": "alcohol"
      }
    },
    {
      "type": "node",
      "id": 612008593,
      "lat": -1.3115824,
      "lon": 36.7991778,
      "tags": {
        "check_date": "2023-05-02",
        "name": "M- pesa Shop",
        "shop": "kiosk"
      }
    },
    {
      "type": "node",
      "id": 612008594,
      "lat": -1.3116594,
      "lon": 36.799134,
      "tags": {
        "name": "M pesa Shop",
        "shop": "kiosk"
      }
    },
    {
      "type": "node",
      "id": 612008595,
      "lat": -1.3117982,
      "lon": 36.7993175,
      "tags": {
        "name": "Traden Hadware",
        "shop": "hardware"
      }
    },
    {
      "type": "node",
      "id": 612008596,
      "lat": -1.3116254,
      "lon": 36.7993235,
      "tags": {
        "check_date": "2023-05-02",
        "name": "Road side pub",
        "shop": "alcohol"
      }
    },
    {
      "type": "node",
      "id": 612008597,
      "lat": -1.3111567,
      "lon": 36.7994641,
      "tags": {
        "check_date": "2023-05-02",
        "name": "Wamuso Shop",
        "shop": "kiosk"
      }
    },
    {
      "type": "node",
      "id": 612008598,
      "lat": -1.3112045,
      "lon": 36.7995293,
      "tags": {
        "name": "M pesa Shop",
        "shop": "kiosk"
      }
    },
    {
      "type": "node",
      "id": 612008600,
      "lat": -1.3164138,
      "lon": 36.776204,
      "tags": {
        "name": "Green Grocer",
        "notes": "Fruits and Vegetable saler",
        "shop": "kiosk"
      }
    },
    {
      "type": "node",
      "id": 612008601,
      "lat": -1.3157986,
      "lon": 36.7754507,
      "tags": {
        "check_date": "2023-05-02",
        "name": "Neema Hotel",
        "notes": "Food Kiosk",
        "shop": "kiosk"
      }
    },
    {
      "type": "node",
      "id": 612008603,
      "lat": -1.3155274,
      "lon": 36.7752537,
      "tags": {
        "check_date": "2023-05-02",
        "name": "Nyaki Consultant Shop",
        "opening_hours": "06:00-21:00",
        "shop": "convenience"
      }
    },
    {
      "type": "node",
      "id": 612008604,
      "lat": -1.3147878,
      "lon": 36.775327,
      "tags": {
        "check_date": "2023-05-02",
        "name": "Baraka Shop",
        "notes": "Kiosk",
        "opening_hours": "06:00-21:00",
        "shop": "kiosk"
      }
    },
    {
      "type": "node",
      "id": 612008614,
      "lat": -1.3107895,
      "lon": 36.7926524,
      "tags": {
        "check_date": "2023-04-03",
        "name": "barber shop",
        "note": "barber shop",
        "shop": "hairdresser"
      }
    },
    {
      "type": "node",
      "id": 612008622,
      "lat": -1.3170097,
      "lon": 36.799371,
      "tags": {
        "dispensing": "yes",
        "health_facility:type": "chemist_dispensing",
        "shop": "chemist"
      }
    },
    {
      "type": "node",
      "id": 612008637,
      "lat": -1.3169292,
      "lon": 36.7956829,
      "tags": {
        "check_date": "2023-03-21",
        "name": "Nyando Bar",
        "shop": "alcohol"
      }
    },
    {
      "type": "node",
      "id": 612008645,
      "lat": -1.3170684,
      "lon": 36.7970474,
      "tags": {
        "check_date": "2023-04-15",
        "name": "Obama Bar",
        "shop": "alcohol"
      }
    },
    {
      "type": "node",
      "id": 612008665,
      "lat": -1.3084868,
      "lon": 36.7897219,
      "tags": {
        "check_date": "2023-04-15",
        "name": "Muungano Bar and Lodge",
        "notes": "bar",
        "opening_hours": "24/7",
        "shop": "alcohol"
      }
    },
    {
      "type": "node",
      "id": 612008677,
      "lat": -1.3129503,
      "lon": 36.7915793,
      "tags": {
        "check_date": "2023-05-04",
        "name": "Mama Maria hair salon",
        "shop": "hairdresser"
      }
    },
    {
      "type": "node",
      "id": 612008699,
      "lat": -1.3143409,
      "lon": 36.7999847,
      "tags": {
        "check_date": "2023-03-27",
        "name": "Frados mobile Repaire",
        "shop": "electronics"
      }
    },
    {
      "type": "node",
      "id": 612008701,
      "lat": -1.3140771,
      "lon": 36.8013179,
      "tags": {
        "check_date": "2023-04-17",
        "name": "Fair Dill shop",
        "shop": "kiosk"
      }
    },
    {
      "type": "node",
      "id": 612008702,
      "lat": -1.3131365,
      "lon": 36.8003393,
      "tags": {
        "check_date": "2023-05-04",
        "name": "Fine tech Turbo",
        "shop": "electronics"
      }
    },
    {
      "type": "node",
      "id": 612008703,
      "lat": -1.311928,
      "lon": 36.7991742,
      "tags": {
        "check_date": "2023-05-02",
        "name": "Joy Hotel",
        "shop": "kiosk"
      }
    },
    {
      "type": "node",
      "id": 612008706,
      "lat": -1.3134626,
      "lon": 36.8005759,
      "tags": {
        "check_date": "2023-04-01",
        "name": "Sams Faniture",
        "shop": "furniture"
      }
    },
    {
      "type": "node",
      "id": 612008707,
      "lat": -1.3135469,
      "lon": 36.8006715,
      "tags": {
        "check_date": "2023-04-01",
        "name": "bunyore Faniture",
        "shop": "furniture"
      }
    },
    {
      "type": "node",
      "id": 612008708,
      "lat": -1.3151654,
      "lon": 36.8026401,
      "tags": {
        "check_date": "2023-05-02",
        "name": "Naomi salon",
        "shop": "hairdresser"
      }
    },
    {
      "type": "node",
      "id": 612008710,
      "lat": -1.3148725,
      "lon": 36.8022724,
      "tags": {
        "check_date": "2023-04-03",
        "name": "Beauty salon",
        "shop": "hairdresser"
      }
    },
    {
      "type": "node",
      "id": 612008711,
      "lat": -1.3126722,
      "lon": 36.7999482,
      "tags": {
        "check_date": "2023-05-04",
        "name": "JMJ Battery chaging",
        "shop": "electronics"
      }
    },
    {
      "type": "node",
      "id": 612008712,
      "lat": -1.3127986,
      "lon": 36.8000091,
      "tags": {
        "check_date": "2023-04-01",
        "name": "Base shop",
        "shop": "kiosk"
      }
    },
    {
      "type": "node",
      "id": 612008713,
      "lat": -1.3123134,
      "lon": 36.7995143,
      "tags": {
        "check_date": "2023-04-15",
        "name": "Achievers Hotel",
        "shop": "kiosk"
      }
    },
    {
      "type": "node",
      "id": 612008721,
      "lat": -1.3132082,
      "lon": 36.7949688,
      "tags": {
        "check_date": "2023-03-27",
        "name": "Wholesale",
        "shop": "convenience"
      }
    },
    {
      "type": "node",
      "id": 612008722,
      "lat": -1.3151931,
      "lon": 36.7969523,
      "tags": {
        "amenity": "cinema",
        "check_date": "2023-05-02",
        "name": "Exodus Hill Video Show",
        "shop": "video"
      }
    },
    {
      "type": "node",
      "id": 612008727,
      "lat": -1.3116251,
      "lon": 36.7933769,
      "tags": {
        "amenity": "public_building",
        "check_date": "2023-04-03",
        "name": "Posho Mill",
        "shop": "kiosk"
      }
    },
    {
      "type": "node",
      "id": 612008729,
      "lat": -1.3116127,
      "lon": 36.7937372,
      "tags": {
        "check_date": "2023-04-22",
        "name": "Chabumba Store",
        "shop": "convenience"
      }
    },
    {
      "type": "node",
      "id": 612008733,
      "lat": -1.3114071,
      "lon": 36.7942502,
      "tags": {
        "check_date": "2023-04-22",
        "name": "Boys to Men Kinyozi",
        "shop": "hairdresser"
      }
    },
    {
      "type": "node",
      "id": 612008734,
      "lat": -1.3113798,
      "lon": 36.7943004,
      "tags": {
        "check_date": "2023-04-22",
        "name": "Jasho Mini Store",
        "shop": "convenience"
      }
    },
    {
      "type": "node",
      "id": 612008743,
      "lat": -1.3111764,
      "lon": 36.7947507,
      "tags": {
        "name": "Jakamiyawa Tailoring Shop",
        "shop": "convenience"
      }
    },
    {
      "type": "node",
      "id": 612008748,
      "lat": -1.3111642,
      "lon": 36.7949766,
      "tags": {
        "name": "Mutunga's Butchery",
        "shop": "butcher"
      }
    },
    {
      "type": "node",
      "id": 612008749,
      "lat": -1.3111884,
      "lon": 36.7949698,
      "tags": {
        "name": "Steve's Kiosk",
        "shop": "kiosk"
      }
    },
    {
      "type": "node",
      "id": 612008750,
      "lat": -1.311174,
      "lon": 36.794949,
      "tags": {
        "name": "Highbury kinyozi",
        "shop": "hairdresser"
      }
    },
    {
      "type": "node",
      "id": 612008752,
      "lat": -1.3111228,
      "lon": 36.7948919,
      "tags": {
        "name": "City Point store",
        "shop": "convenience"
      }
    },
    {
      "type": "node",
      "id": 612008753,
      "lat": -1.3111331,
      "lon": 36.7949129,
      "tags": {
        "name": "Junction salon and kinyozi",
        "shop": "hairdresser"
      }
    },
    {
      "type": "node",
      "id": 612008756,
      "lat": -1.3113495,
      "lon": 36.7953883,
      "tags": {
        "name": "High Fidelity butchery",
        "shop": "butcher"
      }
    },
    {
      "type": "node",
      "id": 612008793,
      "lat": -1.3154967,
      "lon": 36.7788251,
      "tags": {
        "check_date": "2023-05-23",
        "name": "Oti's shoe repair",
        "opening_hours": "08:00-18:00",
        "shop": "shoes"
      }
    },
    {
      "type": "node",
      "id": 612008794,
      "lat": -1.3148976,
      "lon": 36.781095,
      "tags": {
        "opening_hours": "06:00-22:00",
        "shop": "kiosk"
      }
    },
    {
      "type": "node",
      "id": 612008796,
      "lat": -1.3148613,
      "lon": 36.7809173,
      "tags": {
        "amenity": "community_cinema",
        "shop": "video"
      }
    },
    {
      "type": "node",
      "id": 612008798,
      "lat": -1.3143003,
      "lon": 36.7821746,
      "tags": {
        "shop": "electronics"
      }
    },
    {
      "type": "node",
      "id": 612008802,
      "lat": -1.3143938,
      "lon": 36.7827033,
      "tags": {
        "check_date": "2023-05-02",
        "name": "Riziki Butchery",
        "shop": "butcher"
      }
    },
    {
      "type": "node",
      "id": 612008806,
      "lat": -1.314475,
      "lon": 36.7824554,
      "tags": {
        "building:structure": "fully_protected",
        "check_date": "2023-05-02",
        "image:1": "https://kc.humanitarianresponse.info/attachment/original?media_file=mapkibera/attachments/1560328289121.jpg",
        "image:2": "https://kc.humanitarianresponse.info/attachment/original?media_file=mapkibera/attachments/1560328305572.jpg",
        "name": "Corner Side Highway Butchery",
        "opening_hours": "08:00-22:00",
        "shop": "butcher"
      }
    },
    {
      "type": "node",
      "id": 612008807,
      "lat": -1.3146322,
      "lon": 36.7835099,
      "tags": {
        "name": "Battery Charging",
        "opening_hours": "08:00-22:00",
        "shop": "convenience"
      }
    },
    {
      "type": "node",
      "id": 612008808,
      "lat": -1.3146895,
      "lon": 36.7832854,
      "tags": {
        "check_date": "2023-05-02",
        "name": "Oceanic Photo Studio",
        "opening_hours": "08:00-22:00",
        "shop": "video"
      }
    },
    {
      "type": "node",
      "id": 612008809,
      "lat": -1.3147399,
      "lon": 36.7833089,
      "tags": {
        "shop": "hairdresser"
      }
    },
    {
      "type": "node",
      "id": 612008810,
      "lat": -1.3147352,
      "lon": 36.7832815,
      "tags": {
        "name": "Tel Aviv Kinyozi",
        "shop": "hairdresser"
      }
    },
    {
      "type": "node",
      "id": 612008811,
      "lat": -1.3144849,
      "lon": 36.7831442,
      "tags": {
        "check_date": "2023-05-02",
        "name": "The Pentagon Kibera",
        "opening_hours": "10:00-12:00",
        "shop": "alcohol"
      }
    },
    {
      "type": "node",
      "id": 612008813,
      "lat": -1.3146925,
      "lon": 36.7842575,
      "tags": {
        "health_facility:type": "chemist_over_the_counter",
        "name": "community chemist",
        "opening_hours": "08:00-22:00",
        "shop": "chemist"
      }
    },
    {
      "type": "node",
      "id": 612008816,
      "lat": -1.3148435,
      "lon": 36.7840496,
      "tags": {
        "check_date": "2023-05-02",
        "name": "Kwa Mwangi's poshomill",
        "opening_hours": "10:00-22:00",
        "shop": "florist"
      }
    },
    {
      "type": "node",
      "id": 612008817,
      "lat": -1.3147605,
      "lon": 36.7837447,
      "tags": {
        "name": "Brichans laundry",
        "opening_hours": "Mo-Sa 08:30-20:00",
        "shop": "laundry"
      }
    },
    {
      "type": "node",
      "id": 612008818,
      "lat": -1.314722,
      "lon": 36.7844099,
      "tags": {
        "name": "Sammy Electronics",
        "shop": "electronics"
      }
    },
    {
      "type": "node",
      "id": 612008827,
      "lat": -1.3148398,
      "lon": 36.7847812,
      "tags": {
        "shop": "hairdresser"
      }
    },
    {
      "type": "node",
      "id": 612008841,
      "lat": -1.3144855,
      "lon": 36.7843548,
      "tags": {
        "opening_hours": "06:00-22:00",
        "shop": "kiosk"
      }
    },
    {
      "type": "node",
      "id": 612008844,
      "lat": -1.3149086,
      "lon": 36.7854555,
      "tags": {
        "name": "Liberty Butchery",
        "opening_hours": "09:00-22:00",
        "shop": "butcher"
      }
    },
    {
      "type": "node",
      "id": 612008848,
      "lat": -1.3149721,
      "lon": 36.7856842,
      "tags": {
        "name": "Tailr shop",
        "opening_hours": "Mo-Fr 08:30-20:00",
        "shop": "convenience"
      }
    },
    {
      "type": "node",
      "id": 612008849,
      "lat": -1.3148984,
      "lon": 36.7851663,
      "tags": {
        "check_date": "2023-05-02",
        "name": "Matamo pork Butchery",
        "shop": "butcher"
      }
    },
    {
      "type": "node",
      "id": 612008851,
      "lat": -1.314888,
      "lon": 36.785037,
      "tags": {
        "check_date": "2023-05-02",
        "shop": "shoe_repair"
      }
    },
    {
      "type": "node",
      "id": 612008855,
      "lat": -1.3148924,
      "lon": 36.7857703,
      "tags": {
        "name": "Barber shop",
        "opening_hours": "Mo-Su 08:30-20:00",
        "shop": "hairdresser"
      }
    },
    {
      "type": "node",
      "id": 612008856,
      "lat": -1.3150412,
      "lon": 36.7870898,
      "tags": {
        "check_date": "2023-04-17",
        "name": "mama Khukhu Charcoal shop",
        "opening_hours": "08:00-21:00",
        "shop": "convenience"
      }
    },
    {
      "type": "node",
      "id": 612008857,
      "lat": -1.3149991,
      "lon": 36.7870167,
      "tags": {
        "check_date": "2023-04-17",
        "name": "Olpa's shop",
        "shop": "kiosk"
      }
    },
    {
      "type": "node",
      "id": 612008858,
      "lat": -1.3151167,
      "lon": 36.7869152,
      "tags": {
        "check_date": "2023-04-17",
        "name": "Hunters kinyozi",
        "shop": "hairdresser"
      }
    },
    {
      "type": "node",
      "id": 612008859,
      "lat": -1.3149811,
      "lon": 36.7864885,
      "tags": {
        "check_date": "2023-05-02",
        "name": "Baba Musimbi's shop",
        "opening_hours": "06:00-22:00",
        "shop": "kiosk"
      }
    },
    {
      "type": "node",
      "id": 612008861,
      "lat": -1.314988,
      "lon": 36.7866872,
      "tags": {
        "check_date": "2023-05-02",
        "name": "Northern Shop",
        "opening_hours": "06:00-22:00",
        "shop": "kiosk"
      }
    },
    {
      "type": "node",
      "id": 612008879,
      "lat": -1.3134011,
      "lon": 36.7773917,
      "tags": {
        "check_date": "2023-05-02",
        "name": "Big hotel",
        "note": "food kiosk",
        "shop": "kiosk"
      }
    },
    {
      "type": "node",
      "id": 612008880,
      "lat": -1.3131666,
      "lon": 36.7775436,
      "tags": {
        "name": "BAZ music store",
        "opening_hours": "08:00-21:00",
        "shop": "kiosk"
      }
    },
    {
      "type": "node",
      "id": 612008886,
      "lat": -1.3141786,
      "lon": 36.7788939,
      "tags": {
        "check_date": "2023-05-02",
        "name": "Fidys wine and spirit",
        "note": "kiosk",
        "opening_hours": "10:00-17:00",
        "shop": "kiosk"
      }
    },
    {
      "type": "node",
      "id": 612008888,
      "lat": -1.3126021,
      "lon": 36.7780138,
      "tags": {
        "check_date": "2023-05-11",
        "name": "m pesa shop",
        "note": "pesa poinnt",
        "opening_hours": "07:00-17:00",
        "shop": "kiosk"
      }
    },
    {
      "type": "node",
      "id": 612008909,
      "lat": -1.3163319,
      "lon": 36.7940611,
      "tags": {
        "check_date": "2023-03-27",
        "name": "Sakawa Chemist",
        "shop": "chemist"
      }
    },
    {
      "type": "node",
      "id": 612008929,
      "lat": -1.3094065,
      "lon": 36.7869385,
      "tags": {
        "check_date": "2023-05-11",
        "name": "Chacoal depot",
        "note": "chacoal seller",
        "opening_hours": "07:00-20:00",
        "shop": "kiosk"
      }
    },
    {
      "type": "node",
      "id": 612008932,
      "lat": -1.3078878,
      "lon": 36.7877381,
      "tags": {
        "check_date": "2023-04-05",
        "name": "Kenshop/chemist",
        "opening_hours": "07:00-20:00",
        "shop": "kiosk"
      }
    },
    {
      "type": "node",
      "id": 612008935,
      "lat": -1.3092696,
      "lon": 36.7880925,
      "tags": {
        "check_date": "2023-04-05",
        "name": "kerosen shop",
        "opening_hours": "08:00-21:00",
        "shop": "kiosk"
      }
    },
    {
      "type": "node",
      "id": 612008942,
      "lat": -1.3068502,
      "lon": 36.7879956,
      "tags": {
        "check_date": "2023-04-17",
        "name": "Mama Yunnie saloon",
        "note": "Hair dresser",
        "opening_hours": "10:00-18:00",
        "shop": "hairdresser"
      }
    },
    {
      "type": "node",
      "id": 612008943,
      "lat": -1.3067921,
      "lon": 36.7878514,
      "tags": {
        "check_date": "2023-05-11",
        "name": "Kavuli store",
        "opening_hours": "06:00-20:30",
        "shop": "kiosk"
      }
    },
    {
      "type": "node",
      "id": 612008944,
      "lat": -1.3129287,
      "lon": 36.7948886,
      "tags": {
        "check_date": "2023-04-15",
        "name": "Sunny line kinyozi",
        "shop": "hairdresser"
      }
    },
    {
      "type": "node",
      "id": 612008947,
      "lat": -1.3131832,
      "lon": 36.7963749,
      "tags": {
        "name": "Unique store",
        "shop": "kiosk"
      }
    },
    {
      "type": "node",
      "id": 612008948,
      "lat": -1.3133438,
      "lon": 36.7967341,
      "tags": {
        "check_date": "2023-04-26",
        "name": "Wholesale",
        "shop": "supermarket"
      }
    },
    {
      "type": "node",
      "id": 612008949,
      "lat": -1.3132941,
      "lon": 36.7969956,
      "tags": {
        "name": "Wholesale",
        "shop": "supermarket"
      }
    },
    {
      "type": "node",
      "id": 612008950,
      "lat": -1.3129966,
      "lon": 36.7971561,
      "tags": {
        "check_date": "2023-04-15",
        "name": "Machakos Butchery",
        "shop": "butcher"
      }
    },
    {
      "type": "node",
      "id": 612008951,
      "lat": -1.3129377,
      "lon": 36.7971826,
      "tags": {
        "amenity": "cinema",
        "name": "Manchaka Video Show",
        "service": "video_sells",
        "shop": "video"
      }
    },
    {
      "type": "node",
      "id": 612008978,
      "lat": -1.3119791,
      "lon": 36.7962222,
      "tags": {
        "name": "J.K dry cleaner",
        "shop": "dry_cleaning"
      }
    },
    {
      "type": "node",
      "id": 612008979,
      "lat": -1.3119296,
      "lon": 36.7961311,
      "tags": {
        "check_date": "2023-03-27",
        "name": "Uwanjani Shop",
        "shop": "convenience"
      }
    },
    {
      "type": "node",
      "id": 612008980,
      "lat": -1.3126756,
      "lon": 36.7972942,
      "tags": {
        "name": "Kaka Tailoring Shop",
        "shop": "convenience"
      }
    },
    {
      "type": "node",
      "id": 612008983,
      "lat": -1.3123708,
      "lon": 36.797547,
      "tags": {
        "name": "Manchester United shop",
        "shop": "convenience"
      }
    },
    {
      "type": "node",
      "id": 612008987,
      "lat": -1.3121691,
      "lon": 36.7975662,
      "tags": {
        "name": "Wholesale and Kerosene pump",
        "shop": "convenience"
      }
    },
    {
      "type": "node",
      "id": 612008989,
      "lat": -1.3121833,
      "lon": 36.7974114,
      "tags": {
        "name": "Manchester dry cleaner",
        "shop": "dry_cleaning"
      }
    },
    {
      "type": "node",
      "id": 612008990,
      "lat": -1.3114456,
      "lon": 36.7964108,
      "tags": {
        "check_date": "2023-05-02",
        "name": "Jom timber hardware",
        "shop": "hardware"
      }
    },
    {
      "type": "node",
      "id": 612008991,
      "lat": -1.31145,
      "lon": 36.7965374,
      "tags": {
        "check_date": "2023-05-02",
        "name": "Paris classic salon and kinyozi",
        "shop": "hairdresser"
      }
    },
    {
      "type": "node",
      "id": 612008994,
      "lat": -1.3119895,
      "lon": 36.791564,
      "tags": {
        "check_date": "2023-04-17",
        "name": "K.K Butchery",
        "opening_hours": "10:00-22:00",
        "shop": "butcher"
      }
    },
    {
      "type": "node",
      "id": 612008995,
      "lat": -1.3120676,
      "lon": 36.7917805,
      "tags": {
        "check_date": "2023-04-17",
        "name": "Check point Economy shop",
        "opening_hours": "06:00-22:00",
        "shop": "kiosk"
      }
    },
    {
      "type": "node",
      "id": 612008998,
      "lat": -1.3120847,
      "lon": 36.79196,
      "tags": {
        "check_date": "2023-04-17",
        "name": "welding",
        "opening_hours": "09:00-20:00",
        "shop": "convenience"
      }
    },
    {
      "type": "node",
      "id": 612008999,
      "lat": -1.3120518,
      "lon": 36.7921313,
      "tags": {
        "check_date": "2023-04-17",
        "name": "Jaribu Shoe Maker",
        "opening_hours": "09:00-20:00",
        "shop": "shoes"
      }
    },
    {
      "type": "node",
      "id": 612009000,
      "lat": -1.3120376,
      "lon": 36.7921747,
      "tags": {
        "check_date": "2023-04-17",
        "name": "kazuri posho mill",
        "opening_hours": "10:00-22:00",
        "shop": "convenience"
      }
    },
    {
      "type": "node",
      "id": 612009001,
      "lat": -1.3119224,
      "lon": 36.7927272,
      "tags": {
        "name": "Kapungala Hardware",
        "opening_hours": "10:00-19:00",
        "shop": "hardware"
      }
    },
    {
      "type": "node",
      "id": 612009004,
      "lat": -1.3112537,
      "lon": 36.7905672,
      "tags": {
        "check_date": "2023-04-01",
        "name": "Holly wood barber shop",
        "opening_hours": "10:00-22:00",
        "shop": "hairdresser"
      }
    },
    {
      "type": "node",
      "id": 612009006,
      "lat": -1.3113099,
      "lon": 36.7907978,
      "tags": {
        "check_date": "2023-04-01",
        "name": "Imilis Road Side Shop",
        "opening_hours": "06:00-22:00",
        "shop": "kiosk"
      }
    },
    {
      "type": "node",
      "id": 612009010,
      "lat": -1.3084636,
      "lon": 36.7661085,
      "tags": {
        "name": "Corner butcher",
        "shop": "butcher"
      }
    },
    {
      "type": "node",
      "id": 612009011,
      "lat": -1.3075984,
      "lon": 36.7828086,
      "tags": {
        "check_date": "2023-04-12",
        "name": "makina harder",
        "shop": "hardware"
      }
    },
    {
      "type": "node",
      "id": 612009068,
      "lat": -1.3111132,
      "lon": 36.7752808,
      "tags": {
        "name": "special Keg bar",
        "shop": "alcohol"
      }
    },
    {
      "type": "node",
      "id": 612009073,
      "lat": -1.310528,
      "lon": 36.7756599,
      "tags": {
        "check_date": "2023-05-12",
        "name": "omweri dry cleaners",
        "opening_hours": "08:00-17:00",
        "shop": "dry_cleaning"
      }
    },
    {
      "type": "node",
      "id": 612009075,
      "lat": -1.3101811,
      "lon": 36.7757443,
      "tags": {
        "name": "ayany safaricom house",
        "opening_hours": "08:00-20:00",
        "shop": "kiosk"
      }
    },
    {
      "type": "node",
      "id": 612009076,
      "lat": -1.3093783,
      "lon": 36.7735658,
      "tags": {
        "shop": "hairdresser"
      }
    },
    {
      "type": "node",
      "id": 612009077,
      "lat": -1.3096932,
      "lon": 36.7758233,
      "tags": {
        "check_date": "2023-05-02",
        "name": "cooking gas shop",
        "shop": "kiosk"
      }
    },
    {
      "type": "node",
      "id": 612009078,
      "lat": -1.3095467,
      "lon": 36.7753985,
      "tags": {
        "name": "Kiosks",
        "shop": "kiosk"
      }
    },
    {
      "type": "node",
      "id": 612009079,
      "lat": -1.308893,
      "lon": 36.7757988,
      "tags": {
        "name": "ayany auto spares",
        "shop": "kiosk"
      }
    },
    {
      "type": "node",
      "id": 612009081,
      "lat": -1.3164466,
      "lon": 36.7792474,
      "tags": {
        "opening_hours": "06:00-22:00",
        "shop": "kiosk"
      }
    },
    {
      "type": "node",
      "id": 612009082,
      "lat": -1.3162106,
      "lon": 36.7784811,
      "tags": {
        "name": "Tornado Battery Charging",
        "opening_hours": "07:00-21:00",
        "shop": "convenience"
      }
    },
    {
      "type": "node",
      "id": 612009083,
      "lat": -1.3157249,
      "lon": 36.7785852,
      "tags": {
        "check_date": "2023-05-23",
        "name": "Osoro's shop",
        "opening_hours": "06:00-22:00",
        "shop": "kiosk"
      }
    },
    {
      "type": "node",
      "id": 612009084,
      "lat": -1.3156255,
      "lon": 36.7787146,
      "tags": {
        "check_date": "2023-05-23",
        "name": "shop",
        "opening_hours": "06:00-22:00",
        "shop": "kiosk"
      }
    },
    {
      "type": "node",
      "id": 612009085,
      "lat": -1.3156826,
      "lon": 36.7790452,
      "tags": {
        "name": "shop",
        "opening_hours": "06:00-22:00",
        "shop": "kiosk"
      }
    },
    {
      "type": "node",
      "id": 612009089,
      "lat": -1.315436,
      "lon": 36.7788066,
      "tags": {
        "check_date": "2023-05-23",
        "name": "mali mali",
        "opening_hours": "06:00-22:00",
        "shop": "convenience"
      }
    },
    {
      "type": "node",
      "id": 612009095,
      "lat": -1.3154179,
      "lon": 36.7843036,
      "tags": {
        "name": "Way side shop",
        "opening_hours": "06:00-22:00",
        "shop": "kiosk"
      }
    },
    {
      "type": "node",
      "id": 612009096,
      "lat": -1.314752,
      "lon": 36.7841913,
      "tags": {
        "amenity": "pharmacy",
        "check_date": "2023-05-02",
        "contact:phone": "0723226629",
        "dispensing": "yes",
        "health_facility:referals": "KNH",
        "health_facility:type": "chemist_dispensing",
        "medical_staff:pharmacist": "2",
        "name": "Mizima Chemist",
        "opening_hours": "08:00-20:00",
        "operational_status": "operational",
        "operational_status:electricity": "often",
        "operator:type": "private",
        "shop": "electronics"
      }
    },
    {
      "type": "node",
      "id": 612009101,
      "lat": -1.3135757,
      "lon": 36.7993721,
      "tags": {
        "check_date": "2023-04-01",
        "name": "maunt kamel shop",
        "shop": "kiosk"
      }
    },
    {
      "type": "node",
      "id": 612009102,
      "lat": -1.3133654,
      "lon": 36.7995332,
      "tags": {
        "check_date": "2023-03-27",
        "name": "faith tailaring",
        "shop": "laundry"
      }
    },
    {
      "type": "node",
      "id": 612009105,
      "lat": -1.3130776,
      "lon": 36.7996997,
      "tags": {
        "check_date": "2023-04-15",
        "name": "leah's salon",
        "shop": "hairdresser"
      }
    },
    {
      "type": "node",
      "id": 612009106,
      "lat": -1.3130266,
      "lon": 36.7997421,
      "tags": {
        "check_date": "2023-04-15",
        "name": "sistor salon",
        "shop": "hairdresser"
      }
    },
    {
      "type": "node",
      "id": 612009108,
      "lat": -1.3128886,
      "lon": 36.7998506,
      "tags": {
        "check_date": "2023-05-02",
        "name": "island dhoby",
        "shop": "dry_cleaning"
      }
    },
    {
      "type": "node",
      "id": 612009110,
      "lat": -1.3134371,
      "lon": 36.7994641,
      "tags": {
        "check_date": "2023-03-27",
        "name": "Kanini hotel",
        "shop": "kiosk"
      }
    },
    {
      "type": "node",
      "id": 612009111,
      "lat": -1.3135085,
      "lon": 36.7994346,
      "tags": {
        "check_date": "2023-04-15",
        "name": "kawara bar",
        "shop": "alcohol"
      }
    },
    {
      "type": "node",
      "id": 612009114,
      "lat": -1.3138491,
      "lon": 36.8009953,
      "tags": {
        "check_date": "2023-04-01",
        "name": "kinyozi shop",
        "shop": "hairdresser"
      }
    },
    {
      "type": "node",
      "id": 612009115,
      "lat": -1.3138683,
      "lon": 36.801029,
      "tags": {
        "check_date": "2023-05-04",
        "name": "life stile dressing",
        "shop": "laundry"
      }
    },
    {
      "type": "node",
      "id": 612009116,
      "lat": -1.3140798,
      "lon": 36.801222,
      "tags": {
        "check_date": "2023-04-03",
        "name": "one way hotel",
        "shop": "kiosk"
      }
    },
    {
      "type": "node",
      "id": 612009117,
      "lat": -1.3141208,
      "lon": 36.8012575,
      "tags": {
        "check_date": "2023-04-03",
        "name": "tosh kinyozi",
        "shop": "hairdresser"
      }
    },
    {
      "type": "node",
      "id": 612009119,
      "lat": -1.3141781,
      "lon": 36.8013486,
      "tags": {
        "check_date": "2023-04-03",
        "name": "phone repair",
        "shop": "electronics"
      }
    },
    {
      "type": "node",
      "id": 612009120,
      "lat": -1.313267,
      "lon": 36.7995273,
      "tags": {
        "check_date": "2023-03-27",
        "name": "sony shop",
        "shop": "kiosk"
      }
    },
    {
      "type": "node",
      "id": 612009122,
      "lat": -1.3152017,
      "lon": 36.802788,
      "tags": {
        "check_date": "2023-03-27",
        "name": "chipo shop",
        "shop": "kiosk"
      }
    },
    {
      "type": "node",
      "id": 612009123,
      "lat": -1.3143013,
      "lon": 36.8014656,
      "tags": {
        "check_date": "2023-04-03",
        "name": "mama dadas shop",
        "shop": "kiosk"
      }
    },
    {
      "type": "node",
      "id": 612009124,
      "lat": -1.3143956,
      "lon": 36.8015427,
      "tags": {
        "check_date": "2023-04-03",
        "name": "samia shop",
        "shop": "kiosk"
      }
    },
    {
      "type": "node",
      "id": 612009127,
      "lat": -1.3152767,
      "lon": 36.8034992,
      "tags": {
        "check_date": "2023-05-02",
        "name": "Alpha hotel",
        "shop": "kiosk"
      }
    },
    {
      "type": "node",
      "id": 612009128,
      "lat": -1.3152503,
      "lon": 36.8031365,
      "tags": {
        "check_date": "2023-03-27",
        "name": "phone shop",
        "shop": "electronics"
      }
    },
    {
      "type": "node",
      "id": 612009129,
      "lat": -1.3152301,
      "lon": 36.8032094,
      "tags": {
        "check_date": "2023-03-27",
        "name": "benway shop",
        "shop": "kiosk"
      }
    },
    {
      "type": "node",
      "id": 612009130,
      "lat": -1.3127237,
      "lon": 36.7998083,
      "tags": {
        "check_date": "2023-05-04",
        "name": "Salon",
        "shop": "hairdresser"
      }
    },
    {
      "type": "node",
      "id": 612009132,
      "lat": -1.3128641,
      "lon": 36.7999376,
      "tags": {
        "check_date": "2023-04-01",
        "name": "River Side Salon",
        "shop": "kiosk"
      }
    },
    {
      "type": "node",
      "id": 612009157,
      "lat": -1.3112294,
      "lon": 36.7951226,
      "tags": {
        "name": "Getangura junior shop",
        "shop": "convenience"
      }
    },
    {
      "type": "node",
      "id": 612009158,
      "lat": -1.31084,
      "lon": 36.795911,
      "tags": {
        "name": "White House Kinyozi",
        "shop": "hairdresser"
      }
    },
    {
      "type": "node",
      "id": 612009163,
      "lat": -1.3109744,
      "lon": 36.7968749,
      "tags": {
        "check_date": "2023-05-02",
        "name": "Kinda Bookshop",
        "shop": "books"
      }
    },
    {
      "type": "node",
      "id": 612009165,
      "lat": -1.3107662,
      "lon": 36.7960344,
      "tags": {
        "check_date": "2023-04-03",
        "name": "Vision tailoring shop",
        "shop": "convenience"
      }
    },
    {
      "type": "node",
      "id": 612009167,
      "lat": -1.3126605,
      "lon": 36.7920296,
      "tags": {
        "check_date": "2023-04-13",
        "name": "Mama Mwangi shop",
        "opening_hours": "06:00-22:00",
        "shop": "kiosk"
      }
    },
    {
      "type": "node",
      "id": 612009169,
      "lat": -1.3124071,
      "lon": 36.7920702,
      "tags": {
        "shop": "hairdresser"
      }
    },
    {
      "type": "node",
      "id": 612009171,
      "lat": -1.3121804,
      "lon": 36.7921478,
      "tags": {
        "check_date": "2023-04-17",
        "name": "salon",
        "shop": "hairdresser"
      }
    },
    {
      "type": "node",
      "id": 612009173,
      "lat": -1.316593,
      "lon": 36.7931609,
      "tags": {
        "check_date": "2023-03-27",
        "name": "Cobbler shop",
        "shop": "shoes"
      }
    },
    {
      "type": "node",
      "id": 612009174,
      "lat": -1.3161852,
      "lon": 36.7931649,
      "tags": {
        "check_date": "2023-04-01",
        "name": "Mimias Shop",
        "shop": "convenience"
      }
    },
    {
      "type": "node",
      "id": 612009199,
      "lat": -1.3108513,
      "lon": 36.7743619,
      "tags": {
        "name": "Keg Distribution Store",
        "shop": "kiosk"
      }
    },
    {
      "type": "node",
      "id": 612009200,
      "lat": -1.3111164,
      "lon": 36.7751505,
      "tags": {
        "name": "butchery",
        "shop": "butcher"
      }
    },
    {
      "type": "node",
      "id": 612009201,
      "lat": -1.3106638,
      "lon": 36.7742516,
      "tags": {
        "name": "mega mali distributers",
        "shop": "kiosk"
      }
    },
    {
      "type": "node",
      "id": 612009203,
      "lat": -1.3111346,
      "lon": 36.7755763,
      "tags": {
        "check_date": "2023-05-02",
        "name": "ayany cereal shop",
        "shop": "kiosk"
      }
    },
    {
      "type": "node",
      "id": 612009211,
      "lat": -1.3088987,
      "lon": 36.7731126,
      "tags": {
        "name": "m.cliff mini mart",
        "shop": "supermarket"
      }
    },
    {
      "type": "node",
      "id": 612009212,
      "lat": -1.3089952,
      "lon": 36.7731166,
      "tags": {
        "name": "retal shop",
        "shop": "kiosk"
      }
    },
    {
      "type": "node",
      "id": 612009220,
      "lat": -1.3083473,
      "lon": 36.7730492,
      "tags": {
        "check_date": "2023-05-02",
        "name": "mpesa shop",
        "shop": "kiosk"
      }
    },
    {
      "type": "node",
      "id": 612009228,
      "lat": -1.3113544,
      "lon": 36.7768015,
      "tags": {
        "name": "nyatanga hair saloon",
        "shop": "hairdresser"
      }
    },
    {
      "type": "node",
      "id": 612009232,
      "lat": -1.3090796,
      "lon": 36.7903332,
      "tags": {
        "check_date": "2023-04-17",
        "name": "bakery",
        "shop": "bakery"
      }
    },
    {
      "type": "node",
      "id": 612009234,
      "lat": -1.3092389,
      "lon": 36.7903866,
      "tags": {
        "check_date": "2023-04-25",
        "health_facility:type": "chemist_over_the_counter",
        "note": "name? duplicate?",
        "operator:type": "private",
        "shop": "chemist"
      }
    },
    {
      "type": "node",
      "id": 612009242,
      "lat": -1.3073793,
      "lon": 36.7896338,
      "tags": {
        "check_date": "2023-05-11",
        "name": "maria stopes centre",
        "shop": "kiosk"
      }
    },
    {
      "type": "node",
      "id": 612009248,
      "lat": -1.3093005,
      "lon": 36.7905353,
      "tags": {
        "check_date": "2023-04-17",
        "name": "Obama Computer Services",
        "shop": "convenience"
      }
    },
    {
      "type": "node",
      "id": 612009261,
      "lat": -1.3073521,
      "lon": 36.7826041,
      "tags": {
        "check_date": "2023-04-18",
        "name": "riz cyber cafe",
        "shop": "convenience"
      }
    },
    {
      "type": "node",
      "id": 612009264,
      "lat": -1.3065499,
      "lon": 36.7835913,
      "tags": {
        "check_date": "2023-04-25",
        "name": "festack pub",
        "shop": "alcohol"
      }
    },
    {
      "type": "node",
      "id": 612009272,
      "lat": -1.3069362,
      "lon": 36.788381,
      "tags": {
        "name": "Food Kiosk",
        "shop": "kiosk"
      }
    },
    {
      "type": "node",
      "id": 612009360,
      "lat": -1.3156517,
      "lon": 36.7839072,
      "tags": {
        "opening_hours": "06:00-22:00",
        "shop": "kiosk"
      }
    },
    {
      "type": "node",
      "id": 612009361,
      "lat": -1.3158449,
      "lon": 36.7841452,
      "tags": {
        "opening_hours": "06:00-22:00",
        "shop": "kiosk"
      }
    },
    {
      "type": "node",
      "id": 612009366,
      "lat": -1.3147454,
      "lon": 36.7835227,
      "tags": {
        "amenity": "cinema",
        "check_date": "2023-05-02",
        "name": "Kajulu Video show",
        "opening_hours": "08:00-22:00",
        "shop": "video"
      }
    },
    {
      "type": "node",
      "id": 612009368,
      "lat": -1.3137287,
      "lon": 36.7823936,
      "tags": {
        "name": "Rail Side Electronics",
        "opening_hours": "07:00-21:00",
        "shop": "electronics"
      }
    },
    {
      "type": "node",
      "id": 612009369,
      "lat": -1.3137189,
      "lon": 36.7825401,
      "tags": {
        "name": "Uji Base",
        "shop": "beverages"
      }
    },
    {
      "type": "node",
      "id": 612009377,
      "lat": -1.3152612,
      "lon": 36.7855844,
      "tags": {
        "opening_hours": "06:00-22:00",
        "shop": "kiosk"
      }
    },
    {
      "type": "node",
      "id": 612009384,
      "lat": -1.315415,
      "lon": 36.7864193,
      "tags": {
        "opening_hours": "06:00-22:00",
        "shop": "kiosk"
      }
    },
    {
      "type": "node",
      "id": 612009386,
      "lat": -1.315271,
      "lon": 36.7866878,
      "tags": {
        "check_date": "2023-04-17",
        "name": "shop",
        "shop": "kiosk"
      }
    },
    {
      "type": "node",
      "id": 612009389,
      "lat": -1.3149117,
      "lon": 36.7871358,
      "tags": {
        "opening_hours": "06:00-22:00",
        "shop": "kiosk"
      }
    },
    {
      "type": "node",
      "id": 612009578,
      "lat": -1.3143029,
      "lon": 36.7819496,
      "tags": {
        "check_date": "2023-05-02",
        "name": "Glorious shop",
        "opening_hours": "06:00-22:00",
        "shop": "kiosk"
      }
    },
    {
      "type": "node",
      "id": 612009696,
      "lat": -1.3146425,
      "lon": 36.784495,
      "tags": {
        "name": "Ja life shoe repair",
        "shop": "shoes"
      }
    },
    {
      "type": "node",
      "id": 612009699,
      "lat": -1.3145419,
      "lon": 36.7844425,
      "tags": {
        "check_date": "2023-05-02",
        "name": "Sega Laundry",
        "opening_hours": "Mo-Fr 08:30-20:00",
        "shop": "laundry"
      }
    },
    {
      "type": "node",
      "id": 612009702,
      "lat": -1.314407,
      "lon": 36.7843168,
      "tags": {
        "name": "Nyando TV and Radio Clinic",
        "opening_hours": "07:00-21:00",
        "shop": "electronics"
      }
    },
    {
      "type": "node",
      "id": 612009703,
      "lat": -1.3147929,
      "lon": 36.7844423,
      "tags": {
        "name": "Butchery",
        "opening_hours": "10:00-22:00",
        "shop": "butcher"
      }
    },
    {
      "type": "node",
      "id": 612009705,
      "lat": -1.3084795,
      "lon": 36.785833,
      "tags": {
        "check_date": "2023-04-18",
        "name": "m pesa shop",
        "opening_hours": "07:00-19:00",
        "operator": "mobile money agent",
        "shop": "yes"
      }
    },
    {
      "type": "node",
      "id": 612009706,
      "lat": -1.3077136,
      "lon": 36.7861039,
      "tags": {
        "amenity": "pharmacy",
        "check_date": "2023-04-12",
        "contact:phone": "0728134203",
        "health_facility:referals": "Kawangware Herbal",
        "health_facility:type": "herbalist",
        "medical_service:dental_services": "yes",
        "medical_service:ear_nose_throat": "yes",
        "medical_service:family_planning": "yes",
        "medical_service:general_medical_services": "yes",
        "medical_service:malaria": "yes",
        "medical_service:sexually_transmitted_infections_management": "yes",
        "medical_service:tb_diagnosis": "yes",
        "name": "Herbal Chemist",
        "opening_hours": "07:30-19:00",
        "operational_status": "operational",
        "operational_status:electricity": "often",
        "operator:type": "private",
        "shop": "chemist"
      }
    },
    {
      "type": "node",
      "id": 612009708,
      "lat": -1.3108304,
      "lon": 36.7873857,
      "tags": {
        "name": "Anyole Express photo studio",
        "opening_hours": "07:00-20:00",
        "shop": "kiosk"
      }
    },
    {
      "type": "node",
      "id": 612009824,
      "lat": -1.3084392,
      "lon": 36.7730609,
      "tags": {
        "check_date": "2023-04-21",
        "internet_access": "public",
        "name": "digits cyber cafe",
        "shop": "computer"
      }
    },
    {
      "type": "node",
      "id": 612009828,
      "lat": -1.3106217,
      "lon": 36.7740672,
      "tags": {
        "amenity": "cinema",
        "check_date": "2023-05-02",
        "name": "lakewood stadium",
        "shop": "video"
      }
    },
    {
      "type": "node",
      "id": 612009829,
      "lat": -1.3104723,
      "lon": 36.7738105,
      "tags": {
        "check_date": "2023-05-02",
        "name": "yu kianda shop",
        "shop": "kiosk"
      }
    },
    {
      "type": "node",
      "id": 612009832,
      "lat": -1.3110615,
      "lon": 36.7747285,
      "tags": {
        "name": "kajiado north butcher",
        "shop": "butcher"
      }
    },
    {
      "type": "node",
      "id": 612009834,
      "lat": -1.3110589,
      "lon": 36.7748732,
      "tags": {
        "name": "m pesa shop",
        "shop": "kiosk"
      }
    },
    {
      "type": "node",
      "id": 612009836,
      "lat": -1.3111457,
      "lon": 36.7759647,
      "tags": {
        "name": "tarvern bar",
        "opening_hours": "24/7",
        "shop": "alcohol"
      }
    },
    {
      "type": "node",
      "id": 612009838,
      "lat": -1.3113587,
      "lon": 36.7765039,
      "tags": {
        "check_date": "2023-05-02",
        "name": "mwananchi kibera poshomill",
        "opening_hours": "24/7",
        "shop": "kiosk"
      }
    },
    {
      "type": "node",
      "id": 612009839,
      "lat": -1.3114245,
      "lon": 36.7766907,
      "tags": {
        "check_date": "2023-05-02",
        "name": "japanese electrical welding place",
        "shop": "electronics"
      }
    },
    {
      "type": "node",
      "id": 612010506,
      "lat": -1.3140733,
      "lon": 36.7793063,
      "tags": {
        "name": "Sunrise shop",
        "opening_hours": "07:00-20:00",
        "shop": "kiosk"
      }
    },
    {
      "type": "node",
      "id": 612010507,
      "lat": -1.3138731,
      "lon": 36.7770883,
      "tags": {
        "check_date": "2023-05-02",
        "name": "Mobile Repair",
        "note": "ELECTRICAL SHOP",
        "opening_hours": "07:00-18:00",
        "shop": "electronics"
      }
    },
    {
      "type": "node",
      "id": 612010509,
      "lat": -1.3130598,
      "lon": 36.7776269,
      "tags": {
        "name": "Baca investment",
        "note": "shop",
        "opening_hours": "06:30-19:00",
        "shop": "kiosk"
      }
    },
    {
      "type": "node",
      "id": 612010510,
      "lat": -1.3129306,
      "lon": 36.7777288,
      "tags": {
        "name": "Fresh from furthers",
        "opening_hours": "08:00-18:00",
        "shop": "kiosk"
      }
    },
    {
      "type": "node",
      "id": 612010577,
      "lat": -1.3116242,
      "lon": 36.7879866,
      "tags": {
        "name": "Hardware",
        "shop": "hardware"
      }
    },
    {
      "type": "node",
      "id": 612010579,
      "lat": -1.3131474,
      "lon": 36.7898848,
      "tags": {
        "check_date": "2023-04-19",
        "name": "Homeland Kinyozi&Salon",
        "shop": "hairdresser"
      }
    },
    {
      "type": "node",
      "id": 612010581,
      "lat": -1.3134063,
      "lon": 36.7901735,
      "tags": {
        "check_date": "2023-05-04",
        "name": "Puff Kinyozi",
        "shop": "hairdresser"
      }
    },
    {
      "type": "node",
      "id": 612010733,
      "lat": -1.3117155,
      "lon": 36.7923136,
      "tags": {
        "check_date": "2023-04-12",
        "name": "jahomabay",
        "opening_hours": "06:00-21:00",
        "shop": "laundry"
      }
    },
    {
      "type": "node",
      "id": 612010734,
      "lat": -1.3102426,
      "lon": 36.7920877,
      "tags": {
        "amenity": "community_cinema",
        "check_date": "2023-04-15",
        "name": "husler video show",
        "opening_hours": "08:00-21:00",
        "shop": "video"
      }
    },
    {
      "type": "node",
      "id": 612010922,
      "lat": -1.309193,
      "lon": 36.7804143,
      "tags": {
        "check_date": "2023-05-02",
        "name": "Car Wash",
        "shop": "convenience"
      }
    },
    {
      "type": "node",
      "id": 612011193,
      "lat": -1.3135013,
      "lon": 36.7903502,
      "tags": {
        "check_date": "2023-04-05",
        "name": "hotel",
        "shop": "kiosk"
      }
    },
    {
      "type": "node",
      "id": 612011195,
      "lat": -1.3134647,
      "lon": 36.7904609,
      "tags": {
        "name": "Food kiosk",
        "shop": "kiosk"
      }
    },
    {
      "type": "node",
      "id": 612011205,
      "lat": -1.3166352,
      "lon": 36.7948472,
      "tags": {
        "check_date": "2023-03-27",
        "name": "Organiq Chemist",
        "shop": "chemist"
      }
    },
    {
      "type": "node",
      "id": 612011213,
      "lat": -1.3136699,
      "lon": 36.7943026,
      "tags": {
        "name": "Chali General Store",
        "shop": "convenience"
      }
    },
    {
      "type": "node",
      "id": 612011239,
      "lat": -1.3144193,
      "lon": 36.791732,
      "tags": {
        "check_date": "2023-04-15",
        "name": "J M Muli Shop",
        "shop": "convenience"
      }
    },
    {
      "type": "node",
      "id": 612011333,
      "lat": -1.3116174,
      "lon": 36.7936999,
      "tags": {
        "check_date": "2023-05-08",
        "name": "Posho Mill",
        "shop": "convenience"
      }
    },
    {
      "type": "node",
      "id": 612011334,
      "lat": -1.3115692,
      "lon": 36.7938366,
      "tags": {
        "check_date": "2023-04-22",
        "name": "Posho Mill",
        "shop": "convenience"
      }
    },
    {
      "type": "node",
      "id": 612011346,
      "lat": -1.3121365,
      "lon": 36.7976989,
      "tags": {
        "name": "Bata shoe shop",
        "shop": "shoes"
      }
    },
    {
      "type": "node",
      "id": 612011366,
      "lat": -1.31129,
      "lon": 36.7953735,
      "tags": {
        "name": "Kerosene and charcoal point",
        "shop": "convenience"
      }
    },
    {
      "type": "node",
      "id": 612011375,
      "lat": -1.3112076,
      "lon": 36.7961025,
      "tags": {
        "name": "Jua Kali",
        "opening_hours": "Mo-Fr 08:30-20:00",
        "shop": "furniture"
      }
    },
    {
      "type": "node",
      "id": 612011608,
      "lat": -1.3122284,
      "lon": 36.7987827,
      "tags": {
        "name": "Laini Saba Book Store",
        "opening_hours": "Mo-Fr 08:30-20:00",
        "shop": "books"
      }
    },
    {
      "type": "node",
      "id": 637003359,
      "lat": -1.2776352,
      "lon": 36.8342877,
      "tags": {
        "shop": "butcher"
      }
    },
    {
      "type": "node",
      "id": 650226622,
      "lat": -1.2958319,
      "lon": 36.8873124,
      "tags": {
        "addr:city": "Nairobi",
        "addr:street": "Outer Ring Road",
        "name": "Naivas Eastgate",
        "shop": "supermarket"
      }
    },
    {
      "type": "node",
      "id": 654808046,
      "lat": -1.228692,
      "lon": 36.8049611,
      "tags": {
        "name": "Dorman",
        "shop": "mall"
      }
    },
    {
      "type": "node",
      "id": 695644718,
      "lat": -1.32868,
      "lon": 36.7174137,
      "tags": {
        "name": "Double Inn Restaurant",
        "shop": "convenience"
      }
    },
    {
      "type": "node",
      "id": 701794617,
      "lat": -1.3104607,
      "lon": 36.7757205,
      "tags": {
        "check_date": "2023-05-12",
        "dispensing": "no",
        "health_facility:type": "chemist_over_the_counter",
        "name": "Lex Chemist",
        "opening_hours": "08:00-22:00",
        "operational_status": "operational",
        "operational_status:electricity": "sometimes",
        "operator:type": "private",
        "shop": "chemist"
      }
    },
    {
      "type": "node",
      "id": 714721600,
      "lat": -1.3651721,
      "lon": 36.7428089,
      "tags": {
        "name": "Hardy Provision Stores",
        "shop": "convenience"
      }
    },
    {
      "type": "node",
      "id": 720900802,
      "lat": -1.314117,
      "lon": 36.8278143,
      "tags": {
        "name": "South C Shopping Centre",
        "shop": "mall"
      }
    },
    {
      "type": "node",
      "id": 744432249,
      "lat": -1.3007033,
      "lon": 36.7873227,
      "tags": {
        "name": "Nakumatt Prestige",
        "shop": "supermarket"
      }
    },
    {
      "type": "node",
      "id": 762025979,
      "lat": -1.2816587,
      "lon": 36.8169366,
      "tags": {
        "name": "Carrefour",
        "shop": "supermarket",
        "wikidata": "Q217599"
      }
    },
    {
      "type": "node",
      "id": 809797261,
      "lat": -1.237447,
      "lon": 36.8101446,
      "tags": {
        "shop": "greengrocer"
      }
    },
    {
      "type": "node",
      "id": 809797266,
      "lat": -1.2375167,
      "lon": 36.8103162,
      "tags": {
        "shop": "laundry"
      }
    },
    {
      "type": "node",
      "id": 875506791,
      "lat": -1.2981425,
      "lon": 36.7993391,
      "tags": {
        "addr:housename": "Bemuda Plaza",
        "addr:street": "Ngong Road",
        "name": "Security Risk Solutions Ltd.",
        "shop": "computer"
      }
    },
    {
      "type": "node",
      "id": 878847284,
      "lat": -1.3148203,
      "lon": 36.8856851,
      "tags": {
        "name": "video den",
        "shop": "video"
      }
    },
    {
      "type": "node",
      "id": 878847295,
      "lat": -1.3142365,
      "lon": 36.8853042,
      "tags": {
        "name": "Hollywood video den",
        "opening_hours": "Mo-Su 09:00-24:00",
        "shop": "video"
      }
    },
    {
      "type": "node",
      "id": 878847302,
      "lat": -1.3137858,
      "lon": 36.8840715,
      "tags": {
        "name": "Muguka Base",
        "opening_hours": "24/7",
        "shop": "kiosk"
      }
    },
    {
      "type": "node",
      "id": 914492912,
      "lat": -1.3279679,
      "lon": 36.8704469,
      "tags": {
        "addr:city": "Nairobi",
        "addr:postcode": "00100",
        "addr:street": "Enterprise Road",
        "email": "infokenya@gm.com",
        "name": "General Motors East Africa Limited",
        "operator": "General Motors",
        "phone": "+254 20-6936111",
        "shop": "car"
      }
    },
    {
      "type": "node",
      "id": 914492919,
      "lat": -1.3263667,
      "lon": 36.8805766,
      "tags": {
        "name": "Kenroid Complex",
        "opening_hours": "Mo-Fr 08:30-20:00",
        "shop": "kiosk"
      }
    },
    {
      "type": "node",
      "id": 929941887,
      "lat": -1.278327,
      "lon": 36.8113459,
      "tags": {
        "name": "Tuck shop",
        "shop": "convenience"
      }
    },
    {
      "type": "node",
      "id": 929941945,
      "lat": -1.2786638,
      "lon": 36.8114998,
      "tags": {
        "name": "Tuck shop",
        "shop": "convenience"
      }
    },
    {
      "type": "node",
      "id": 929943767,
      "lat": -1.2807617,
      "lon": 36.810273,
      "tags": {
        "name": "Tuck shop",
        "shop": "convenience"
      }
    },
    {
      "type": "node",
      "id": 940066424,
      "lat": -1.2737656,
      "lon": 36.8046619,
      "tags": {
        "name": "Unes Mart",
        "shop": "convenience"
      }
    },
    {
      "type": "node",
      "id": 968588620,
      "lat": -1.2748707,
      "lon": 36.7947865,
      "tags": {
        "name": "Kasuku Centre",
        "shop": "mall"
      }
    },
    {
      "type": "node",
      "id": 1015583776,
      "lat": -1.3184596,
      "lon": 36.7785537,
      "tags": {
        "check_date": "2023-05-02",
        "name": "Egesa mali/serial rahisi store",
        "shop": "kiosk"
      }
    },
    {
      "type": "node",
      "id": 1038091929,
      "lat": -1.2658627,
      "lon": 36.8508872,
      "tags": {
        "name": "Cocacola Depot",
        "shop": "beverages"
      }
    },
    {
      "type": "node",
      "id": 1038103781,
      "lat": -1.2649766,
      "lon": 36.8593225,
      "tags": {
        "name": "Juja road furnitures",
        "opening_hours": "Mo-Su 08:00-18:00",
        "shop": "furniture"
      }
    },
    {
      "type": "node",
      "id": 1038103806,
      "lat": -1.2640469,
      "lon": 36.8591977,
      "tags": {
        "name": "Mama ammam Busaa club",
        "opening_hours": "Mo-Su 08:30-20:00",
        "shop": "alcohol"
      }
    },
    {
      "type": "node",
      "id": 1038172446,
      "lat": -1.2564428,
      "lon": 36.8738935,
      "tags": {
        "name": "Multy Supermarket",
        "shop": "supermarket"
      }
    },
    {
      "type": "node",
      "id": 1038189719,
      "lat": -1.2629251,
      "lon": 36.850796,
      "tags": {
        "name": "Wamogori Shop",
        "shop": "kiosk"
      }
    },
    {
      "type": "node",
      "id": 1038193528,
      "lat": -1.2657832,
      "lon": 36.8550079,
      "tags": {
        "name": "General Shop",
        "shop": "kiosk"
      }
    },
    {
      "type": "node",
      "id": 1038193545,
      "lat": -1.2657625,
      "lon": 36.8556579,
      "tags": {
        "name": "Urban Supermarket",
        "name:it": "Urban",
        "shop": "supermarket"
      }
    },
    {
      "type": "node",
      "id": 1038193557,
      "lat": -1.2657706,
      "lon": 36.855658,
      "tags": {
        "name": "Grocery",
        "shop": "kiosk"
      }
    },
    {
      "type": "node",
      "id": 1038193571,
      "lat": -1.2657644,
      "lon": 36.8556565,
      "tags": {
        "name": "Salon",
        "shop": "hairdresser"
      }
    },
    {
      "type": "node",
      "id": 1038193576,
      "lat": -1.2652401,
      "lon": 36.8552947,
      "tags": {
        "name": "Big Deal General Store",
        "name:it": "Big Deal",
        "shop": "kiosk"
      }
    },
    {
      "type": "node",
      "id": 1038202676,
      "lat": -1.260923,
      "lon": 36.8593131,
      "tags": {
        "name": "Kachi bora video show",
        "shop": "video"
      }
    },
    {
      "type": "node",
      "id": 1038202692,
      "lat": -1.2584587,
      "lon": 36.8619385,
      "tags": {
        "amenity": "pharmacy",
        "dispensing": "yes",
        "name": "Neigbourhood chemist",
        "shop": "chemist"
      }
    },
    {
      "type": "node",
      "id": 1038202695,
      "lat": -1.2581726,
      "lon": 36.8626972,
      "tags": {
        "name": "Sokomoko wholesales",
        "shop": "supermarket"
      }
    },
    {
      "type": "node",
      "id": 1038202698,
      "lat": -1.2605809,
      "lon": 36.8605682,
      "tags": {
        "name": "Ganja land video show",
        "shop": "video"
      }
    },
    {
      "type": "node",
      "id": 1038202761,
      "lat": -1.2582991,
      "lon": 36.86224,
      "tags": {
        "name": "Tsunami barbar shop",
        "shop": "kiosk"
      }
    },
    {
      "type": "node",
      "id": 1038202770,
      "lat": -1.2584785,
      "lon": 36.8618542,
      "tags": {
        "name": "Kasongo photo studio",
        "shop": "kiosk"
      }
    },
    {
      "type": "node",
      "id": 1038202775,
      "lat": -1.2619481,
      "lon": 36.8587995,
      "tags": {
        "name": "Hersia palace pub",
        "shop": "alcohol"
      }
    },
    {
      "type": "node",
      "id": 1038202790,
      "lat": -1.2612602,
      "lon": 36.8590106,
      "tags": {
        "name": "Wonder video show",
        "shop": "video"
      }
    },
    {
      "type": "node",
      "id": 1038202808,
      "lat": -1.2610812,
      "lon": 36.8589234,
      "tags": {
        "name": "Baraka chemist",
        "shop": "chemist"
      }
    },
    {
      "type": "node",
      "id": 1038219147,
      "lat": -1.2528009,
      "lon": 36.8723022,
      "tags": {
        "name": "Economy supermarket",
        "name:it": "Economy",
        "shop": "supermarket"
      }
    },
    {
      "type": "node",
      "id": 1038219170,
      "lat": -1.2507017,
      "lon": 36.8740233,
      "tags": {
        "name": "Lucky Star supe market",
        "shop": "supermarket"
      }
    },
    {
      "type": "node",
      "id": 1038219179,
      "lat": -1.2532174,
      "lon": 36.8708895,
      "tags": {
        "name": "Mathare North Stalls",
        "shop": "kiosk"
      }
    },
    {
      "type": "node",
      "id": 1038219181,
      "lat": -1.250955,
      "lon": 36.87453,
      "tags": {
        "name": "Valley one pub",
        "shop": "alcohol"
      }
    },
    {
      "type": "node",
      "id": 1101737147,
      "lat": -1.2602345,
      "lon": 36.8703685,
      "tags": {
        "name": "Capentry Workshop",
        "shop": "furniture"
      }
    },
    {
      "type": "node",
      "id": 1101737228,
      "lat": -1.2596131,
      "lon": 36.8665348,
      "tags": {
        "name": "Thiongo\"s Butchery",
        "shop": "butcher"
      }
    },
    {
      "type": "node",
      "id": 1102975988,
      "lat": -1.2630545,
      "lon": 36.857246,
      "tags": {
        "name": "Poshomil to be changedl",
        "shop": "kiosk"
      }
    },
    {
      "type": "node",
      "id": 1103092202,
      "lat": -1.260665,
      "lon": 36.8635155,
      "tags": {
        "name": "Jeremy's pub",
        "shop": "alcohol"
      }
    },
    {
      "type": "node",
      "id": 1103092281,
      "lat": -1.2608808,
      "lon": 36.8633597,
      "tags": {
        "name": "Posho Mill",
        "shop": "kiosk"
      }
    },
    {
      "type": "node",
      "id": 1103092326,
      "lat": -1.2617596,
      "lon": 36.8638197,
      "tags": {
        "name": "Veew Distributors LTD",
        "shop": "alcohol"
      }
    },
    {
      "type": "node",
      "id": 1103092329,
      "lat": -1.2591188,
      "lon": 36.8643135,
      "tags": {
        "name": "Sayun supermarket",
        "name:it": "Sayun",
        "shop": "supermarket"
      }
    },
    {
      "type": "node",
      "id": 1103092333,
      "lat": -1.2607179,
      "lon": 36.8637116,
      "tags": {
        "name": "Texas Video Show",
        "shop": "video"
      }
    },
    {
      "type": "node",
      "id": 1103092375,
      "lat": -1.2627379,
      "lon": 36.8643905,
      "tags": {
        "shop": "furniture"
      }
    },
    {
      "type": "node",
      "id": 1103092469,
      "lat": -1.2608175,
      "lon": 36.8634499,
      "tags": {
        "name": "Ngololo Supermarket",
        "shop": "supermarket"
      }
    },
    {
      "type": "node",
      "id": 1103092496,
      "lat": -1.2619261,
      "lon": 36.8640134,
      "tags": {
        "shop": "car"
      }
    },
    {
      "type": "node",
      "id": 1103092499,
      "lat": -1.2584454,
      "lon": 36.8640219,
      "tags": {
        "name": "Neighbours bar and restaurant",
        "name:it": "Neighbours",
        "shop": "alcohol"
      }
    },
    {
      "type": "node",
      "id": 1103152233,
      "lat": -1.2592393,
      "lon": 36.8610024,
      "tags": {
        "name": "Crispomed chemisty",
        "shop": "chemist"
      }
    },
    {
      "type": "node",
      "id": 1103152353,
      "lat": -1.2605993,
      "lon": 36.8599307,
      "tags": {
        "name": "One stone video show",
        "shop": "video"
      }
    },
    {
      "type": "node",
      "id": 1103152676,
      "lat": -1.2608291,
      "lon": 36.8608645,
      "tags": {
        "name": "Community dispensing chemist",
        "shop": "chemist"
      }
    },
    {
      "type": "node",
      "id": 1110239847,
      "lat": -1.2656463,
      "lon": 36.8455975,
      "tags": {
        "name": "Wa Caro",
        "shop": "supermarket"
      }
    },
    {
      "type": "node",
      "id": 1110245194,
      "lat": -1.2634596,
      "lon": 36.8493095,
      "tags": {
        "name": "M Pesa",
        "shop": "kiosk"
      }
    },
    {
      "type": "node",
      "id": 1110245200,
      "lat": -1.263579,
      "lon": 36.8492543,
      "tags": {
        "name": "Murata Hardware",
        "shop": "hardware"
      }
    },
    {
      "type": "node",
      "id": 1110245201,
      "lat": -1.2636633,
      "lon": 36.8492303,
      "tags": {
        "name": "Wambos hotel",
        "shop": "kiosk"
      }
    },
    {
      "type": "node",
      "id": 1110245204,
      "lat": -1.2626155,
      "lon": 36.8494498,
      "tags": {
        "name": "kerosene pump",
        "shop": "kiosk"
      }
    },
    {
      "type": "node",
      "id": 1110245205,
      "lat": -1.2628394,
      "lon": 36.8494774,
      "tags": {
        "name": "shop",
        "shop": "kiosk"
      }
    },
    {
      "type": "node",
      "id": 1110245206,
      "lat": -1.2630295,
      "lon": 36.849405,
      "tags": {
        "name": "Hollywood photo studio",
        "shop": "video"
      }
    },
    {
      "type": "node",
      "id": 1111451075,
      "lat": -1.2565217,
      "lon": 36.8737266,
      "tags": {
        "name": "Ansar Supermarket",
        "shop": "supermarket"
      }
    },
    {
      "type": "node",
      "id": 1111451119,
      "lat": -1.2594324,
      "lon": 36.8688305,
      "tags": {
        "name": "Mini price supermarket",
        "name:it": "Mini Price",
        "shop": "supermarket"
      }
    },
    {
      "type": "node",
      "id": 1111566290,
      "lat": -1.2554857,
      "lon": 36.8758835,
      "tags": {
        "name": "Kiamaiko Slaughter House Office",
        "shop": "butcher"
      }
    },
    {
      "type": "node",
      "id": 1111566294,
      "lat": -1.2548352,
      "lon": 36.8759496,
      "tags": {
        "name": "BURKA SLAUGHTER HOUSE",
        "shop": "butcher"
      }
    },
    {
      "type": "node",
      "id": 1111566309,
      "lat": -1.2568472,
      "lon": 36.8756416,
      "tags": {
        "name": "GENESIS IMFORMATIVE BOOK SHOP",
        "shop": "books"
      }
    },
    {
      "type": "node",
      "id": 1111566315,
      "lat": -1.2546925,
      "lon": 36.8758552,
      "tags": {
        "name": "MWANGAZA SLAUGHTER HOUSE",
        "shop": "butcher"
      }
    },
    {
      "type": "node",
      "id": 1111566329,
      "lat": -1.2563061,
      "lon": 36.8738326,
      "tags": {
        "name": "Cereals Store",
        "shop": "convenience"
      }
    },
    {
      "type": "node",
      "id": 1111566330,
      "lat": -1.2550545,
      "lon": 36.8760419,
      "tags": {
        "name": "N-BEST SLAUGHTER HOUSE",
        "shop": "butcher"
      }
    },
    {
      "type": "node",
      "id": 1111566364,
      "lat": -1.2547701,
      "lon": 36.875481,
      "tags": {
        "name": "Oda Hotel",
        "shop": "kiosk"
      }
    },
    {
      "type": "node",
      "id": 1111566404,
      "lat": -1.2563541,
      "lon": 36.8730578,
      "tags": {
        "name": "Ngei 1 Super market",
        "name:it": "Ngei 1",
        "shop": "supermarket"
      }
    },
    {
      "type": "node",
      "id": 1111566419,
      "lat": -1.2556077,
      "lon": 36.8756071,
      "tags": {
        "name": "VILLAGE DAIRY MILK",
        "name:it": "Village Dairy Milk",
        "shop": "kiosk"
      }
    },
    {
      "type": "node",
      "id": 1111566437,
      "lat": -1.2572979,
      "lon": 36.8746663,
      "tags": {
        "name": "Kambu Store",
        "name:it": "Kambu",
        "shop": "convenience"
      }
    },
    {
      "type": "node",
      "id": 1111586976,
      "lat": -1.2497208,
      "lon": 36.877708,
      "tags": {
        "name": "Lore Photo Shop",
        "shop": "video"
      }
    },
    {
      "type": "node",
      "id": 1111586985,
      "lat": -1.2500584,
      "lon": 36.8759905,
      "tags": {
        "name": "Glorious Photo Studio",
        "shop": "video"
      }
    },
    {
      "type": "node",
      "id": 1111587206,
      "lat": -1.2505325,
      "lon": 36.8763456,
      "tags": {
        "name": "Smart Choice",
        "shop": "supermarket"
      }
    },
    {
      "type": "node",
      "id": 1112884985,
      "lat": -1.2596832,
      "lon": 36.8625912,
      "tags": {
        "name": "kiwanza store",
        "shop": "supermarket"
      }
    },
    {
      "type": "node",
      "id": 1112902244,
      "lat": -1.2621503,
      "lon": 36.8608527,
      "tags": {
        "shop": "kiosk"
      }
    },
    {
      "type": "node",
      "id": 1112902248,
      "lat": -1.2616761,
      "lon": 36.861109,
      "tags": {
        "shop": "clothes"
      }
    },
    {
      "type": "node",
      "id": 1112902269,
      "lat": -1.2619337,
      "lon": 36.8613177,
      "tags": {
        "shop": "hairdresser"
      }
    },
    {
      "type": "node",
      "id": 1112905657,
      "lat": -1.2651347,
      "lon": 36.8565759,
      "tags": {
        "name": "Ultimate kiosk",
        "name:it": "Ultimate",
        "shop": "kiosk"
      }
    },
    {
      "type": "node",
      "id": 1112905658,
      "lat": -1.2657644,
      "lon": 36.8577978,
      "tags": {
        "name": "Joyland store",
        "shop": "kiosk"
      }
    },
    {
      "type": "node",
      "id": 1112905666,
      "lat": -1.2653828,
      "lon": 36.8562192,
      "tags": {
        "name": "Uncle Ben Shop",
        "name:it": "Uncle Ben",
        "shop": "kiosk"
      }
    },
    {
      "type": "node",
      "id": 1123193245,
      "lat": -1.2577644,
      "lon": 36.8681439,
      "tags": {
        "name": "Nyar Mumbo poshomill",
        "shop": "kiosk"
      }
    },
    {
      "type": "node",
      "id": 1123193247,
      "lat": -1.2577566,
      "lon": 36.8672985,
      "tags": {
        "name": "Equator School of hairdressing",
        "shop": "hairdresser"
      }
    },
    {
      "type": "node",
      "id": 1123193269,
      "lat": -1.2591184,
      "lon": 36.8684596,
      "tags": {
        "name": "Joska",
        "shop": "dry_cleaning"
      }
    },
    {
      "type": "node",
      "id": 1123193374,
      "lat": -1.2608127,
      "lon": 36.8670314,
      "tags": {
        "name": "Sayuni Supermarket Equity Agent",
        "shop": "supermarket"
      }
    },
    {
      "type": "node",
      "id": 1123193376,
      "lat": -1.2578671,
      "lon": 36.8673392,
      "tags": {
        "name": "Economy Supermarket",
        "shop": "supermarket"
      }
    },
    {
      "type": "node",
      "id": 1123193412,
      "lat": -1.2607013,
      "lon": 36.8666404,
      "tags": {
        "name": "New Bethsaida cafe",
        "shop": "kiosk"
      }
    },
    {
      "type": "node",
      "id": 1123193415,
      "lat": -1.258944,
      "lon": 36.8668912,
      "tags": {
        "name": "Osaka Supermarket Store",
        "name:it": "Osaka",
        "shop": "supermarket"
      }
    },
    {
      "type": "node",
      "id": 1123201095,
      "lat": -1.2588608,
      "lon": 36.8688164,
      "tags": {
        "name": "Smart choice supermarket",
        "name:it": "Smart Choice",
        "shop": "supermarket"
      }
    },
    {
      "type": "node",
      "id": 1123201146,
      "lat": -1.2574448,
      "lon": 36.872764,
      "tags": {
        "name": "Elishiba wholesalers",
        "name:it": "Elishiba",
        "shop": "convenience"
      }
    },